     3.03           OBSERVATION DATA     I:IRNSS            RINEX VERSION / TYPE
OBS GEN             Accord              01-JAN-24 00:00     PGM / RUN BY / DATE 
IRNSS                                                       MARKER NAME         
0                                                           MARKER NUMBER       
Human                                                       MARKER TYPE         
Unknown             Accord                                  OBSERVER / AGENCY   
01                  NGS-C60 CV22        1.0                 REC # / TYPE / VERS 
18730               L5S1                                    ANT # / TYPE        
  1243909.4450   5462556.0080   3038758.0532                APPROX POSITION XYZ 
        0.0000         0.0000         0.0000                ANTENNA: DELTA H/E/N
I    8 C5C L5C D5C S5C C9C L9C D9C S9C                      SYS / # / OBS TYPES 
DBHZ                                                        SIGNAL STRENGTH UNIT
SNR is mapped to RINEX snr flag value [1-9]                 COMMENT             
< 12dBHz -> 1; 12-17dBHz -> 2; 18-23dBHz -> 3               COMMENT             
24-29dBHz -> 4; 30-35dBHz -> 5; 36-41dBHz -> 6              COMMENT             
42-47dBHz -> 7; 48-53dBHz -> 8; >= 54dBHz -> 9              COMMENT             
                                                            COMMENT             
    30.000                                                  INTERVAL            
  2024     1     1     0     0    0.0000000     IRN         TIME OF FIRST OBS   
  2024     1     1    23    59   30.0000000     IRN         TIME OF LAST OBS    
                                                            SYS / PHASE SHIFT   
                                                            SYS / PHASE SHIFT   
                                                            END OF HEADER       
> 2024 01 01  0  0  0.0000000  0  9      -210.226854883775
I01         0.000 8         0.00008        -0.053 8        50.781           0.000 3         0.00003        -0.113 3        22.031  
I02  39501303.281 6 155008428.49206        97.331 6        41.250    39501298.038 5 328348306.57805       206.040 5        34.688  
I03  36493871.100 8 143206668.30908         3.194 8        50.469    36493865.491 7 303349045.60107         6.570 7        44.531  
I04         0.000 7         0.00007        -0.053 7        44.531           0.000 6         0.00006        -0.113 6        36.562  
I05         0.000 8         0.00008        -0.053 8        48.281           0.000 7         0.00007        -0.113 7        42.344  
I06  38399263.531 7 150683896.74507       -47.991 7        44.844    38399256.519 6 319187644.11006      -100.826 6        38.281  
I07         0.000 7         0.00007        -0.053 7        43.594           0.000 6         0.00006        -0.113 6        37.656  
I09  36179052.565 8 141971565.87308      -120.169 8        50.938    36179046.488 7 300732214.90707      -254.553 7        44.531  
I10  39464823.846 7 154865395.61307       -62.771 7        43.281    39464818.293 6 328045038.92006      -132.821 6        36.094  
> 2024 01 01  0  0 30.0000000  0  9      -209.268601770293
I01         0.000 8         0.00008         0.014 8        50.625           0.000 3         0.00003         0.029 3        22.656  
I02  39502039.835 6 155011318.10906        95.834 6        41.562    39502033.982 5 328354427.56305       202.406 5        34.531  
I03  36493895.905 8 143206765.57108         3.385 8        50.469    36493890.093 7 303349251.62607         7.152 7        44.375  
I04         0.000 7         0.00007         0.014 7        44.531           0.000 6         0.00006         0.029 6        36.875  
I05         0.000 8         0.00008         0.014 8        48.281           0.000 7         0.00007         0.029 7        42.344  
I06  38398898.847 7 150682463.94107       -47.841 7        44.844    38398891.325 6 319184609.01506      -100.961 6        38.438  
I07         0.000 7         0.00007         0.014 7        43.438           0.000 6         0.00006         0.029 6        37.656  
I09  36178134.740 8 141967963.43408      -120.122 8        50.938    36178128.677 7 300724583.98307      -254.377 7        45.000  
I10  39464343.058 7 154863507.52007       -62.834 7        43.438    39464337.593 6 328041039.45206      -133.377 6        36.250  
> 2024 01 01  0  1  0.0000000  0  9      -209.911128643002
I01         0.000 8         0.00008         0.050 8        50.781           0.000 3         0.00003         0.107 3        23.281  
I02  39502762.132 6 155014151.62906        93.734 6        41.719    39502755.740 5 328360429.67505       198.505 5        34.531  
I03  36493921.951 8 143206867.48608         3.548 8        50.469    36493916.244 7 303349467.49507         7.520 7        44.531  
I04         0.000 7         0.00007         0.050 7        44.375           0.000 6         0.00006         0.107 6        36.719  
I05         0.000 8         0.00008         0.050 8        48.281           0.000 7         0.00007         0.107 7        42.656  
I06  38398533.160 7 150681030.01707       -47.574 7        45.000    38398526.129 6 319181571.55606      -101.236 6        38.438  
I07         0.000 7         0.00007         0.050 7        43.438           0.000 6         0.00006         0.107 6        37.656  
I09  36177216.871 8 141964361.83308      -119.909 8        50.938    36177211.229 7 300716954.84407      -254.191 7        45.156  
I10  39463860.898 7 154861616.48507       -62.851 7        43.438    39463855.132 6 328037033.74906      -133.783 6        36.250  
> 2024 01 01  0  1 30.0000000  0  9      -209.769979822096
I01         0.000 8         0.00008        -0.079 8        50.781           0.000 3         0.00003        -0.167 3        22.656  
I02  39503469.913 6 155016929.34206        91.709 6        41.875    39503464.194 5 328366313.58105       194.219 5        35.000  
I03  36493949.098 8 143206974.04308         3.576 8        50.469    36493943.144 7 303349693.19107         7.618 7        44.375  
I04         0.000 7         0.00007        -0.079 7        44.219           0.000 6         0.00006        -0.167 6        36.875  
I05         0.000 8         0.00008        -0.079 8        48.438           0.000 7         0.00007        -0.167 7        42.344  
I06  38398167.628 7 150679594.99807       -48.105 7        44.844    38398160.468 6 319178531.78706      -101.769 6        38.438  
I07         0.000 7         0.00007        -0.079 7        43.594           0.000 6         0.00006        -0.167 6        37.812  
I09  36176299.219 8 141960761.01208      -120.148 8        50.938    36176293.656 7 300709327.35007      -254.502 7        45.312  
I10  39463378.112 7 154859722.50307       -63.217 7        43.438    39463372.459 6 328033021.80706      -134.526 6        36.250  
> 2024 01 01  0  2  0.0000000  0  9      -209.637631894121
I01         0.000 8         0.00008        -0.031 8        50.781           0.000 4         0.00004        -0.066 4        24.844  
I02  39504163.033 6 155019649.60706        90.053 6        41.562    39504157.351 5 328372075.82605       190.461 5        34.844  
I03  36493977.323 8 143207085.26308         3.779 8        50.469    36493971.687 7 303349928.79207         7.941 7        44.375  
I04         0.000 7         0.00007        -0.031 7        44.375           0.000 6         0.00006        -0.066 6        36.562  
I05         0.000 8         0.00008        -0.031 8        48.438           0.000 7         0.00007        -0.066 7        42.500  
I06  38397801.564 7 150678158.89607       -47.921 7        44.844    38397794.132 6 319175489.72506      -101.743 6        38.438  
I07         0.000 7         0.00007        -0.031 7        43.438           0.000 6         0.00006        -0.066 6        37.656  
I09  36175381.916 8 141957160.95308      -120.065 8        50.938    36175376.390 7 300701701.48007      -254.285 7        45.469  
I10  39462894.962 7 154857825.60907       -63.399 7        43.438    39462888.686 6 328029003.70006      -134.162 6        36.094  
> 2024 01 01  0  2 30.0000000  0  9      -210.038589950713
I01         0.000 8         0.00008        -0.059 8        50.781           0.000 4         0.00004        -0.124 4        24.844  
I02  39504841.677 6 155022312.52006        87.866 6        41.719    39504835.408 5 328377716.57105       185.725 5        34.844  
I03  36494006.890 8 143207201.09408         3.927 8        50.469    36494001.096 7 303350174.14307         8.277 7        44.531  
I04         0.000 7         0.00007        -0.059 7        44.219           0.000 6         0.00006        -0.124 6        36.719  
I05         0.000 8         0.00008        -0.059 8        48.281           0.000 7         0.00007        -0.124 7        42.812  
I06  38397435.149 7 150676721.70307       -47.884 7        45.000    38397427.993 6 319172445.33406      -101.298 6        38.281  
I07         0.000 7         0.00007        -0.059 7        43.438           0.000 6         0.00006        -0.124 6        37.812  
I09  36174464.762 8 141953561.71008      -120.035 8        51.094    36174458.908 7 300694077.31507      -254.228 7        45.312  
I10  39462410.755 7 154855925.79207       -63.547 7        43.438    39462404.821 6 328024979.39606      -134.659 6        36.250  
> 2024 01 01  0  3  0.0000000  0  9      -209.951617374034
I01         0.000 8         0.00008        -0.097 8        50.781           0.000 4         0.00004        -0.205 4        26.250  
I02  39505506.181 6 155024919.33406        85.746 6        41.719    39505500.301 5 328383238.49505       182.185 5        35.000  
I03  36494037.528 8 143207321.56508         4.055 8        50.312    36494031.838 7 303350429.32807         8.492 7        44.531  
I04         0.000 7         0.00007        -0.097 7        44.375           0.000 6         0.00006        -0.205 6        36.875  
I05         0.000 8         0.00008        -0.097 8        48.438           0.000 7         0.00007        -0.205 7        42.656  
I06  38397069.029 7 150675283.39607       -48.108 7        44.844    38397061.046 6 319169398.58906      -101.676 6        38.281  
I07         0.000 7         0.00007        -0.097 7        43.438           0.000 6         0.00006        -0.205 6        37.500  
I09  36173547.384 8 141949963.16108      -120.057 8        50.938    36173542.016 7 300686454.62807      -254.253 7        45.156  
I10  39461926.093 7 154854023.08507       -63.535 7        43.438    39461919.775 6 328020948.99206      -134.785 6        36.094  
> 2024 01 01  0  3 30.0000000  0  9      -210.024446722899
I01         0.000 8         0.00008        -0.014 8        50.781           0.000 3         0.00003        -0.029 3        23.906  
I02  39506155.799 6 155027469.88206        84.006 6        41.562    39506149.983 5 328388641.23205       178.226 5        34.844  
I03  36494069.502 8 143207446.69908         4.332 8        50.469    36494063.646 7 303350694.38107         8.931 7        44.531  
I04         0.000 7         0.00007        -0.014 7        44.062           0.000 6         0.00006        -0.029 6        36.875  
I05         0.000 8         0.00008        -0.014 8        48.594           0.000 7         0.00007        -0.029 7        42.812  
I06  38396702.116 7 150673844.01807       -47.915 7        45.000    38396694.705 6 319166349.59406      -101.523 6        38.281  
I07         0.000 7         0.00007        -0.014 7        43.594           0.000 6         0.00006        -0.029 6        37.656  
I09  36172630.786 8 141946365.36308      -119.904 8        50.938    36172625.176 7 300678833.53507      -254.097 7        45.156  
I10  39461440.325 7 154852117.47907       -63.434 7        43.594    39461434.185 5 328016912.41605      -134.449 5        35.781  
> 2024 01 01  0  4  0.0000000  0  9      -210.109975292023
I01         0.000 8         0.00008        -0.081 8        50.938           0.000 4         0.00004        -0.171 4        24.375  
I02  39506791.657 6 155029962.73106        82.074 6        41.562    39506785.738 5 328393921.75105       173.935 5        35.000  
I03  36494102.535 8 143207576.46308         4.321 8        50.469    36494096.897 7 303350969.26307         9.233 7        44.375  
I04         0.000 7         0.00007        -0.081 7        44.375           0.000 6         0.00006        -0.171 6        37.188  
I05         0.000 8         0.00008        -0.081 8        48.594           0.000 7         0.00007        -0.171 7        42.812  
I06  38396334.867 7 150672403.57507       -48.251 7        44.844    38396327.195 6 319163298.34306      -101.860 6        38.281  
I07         0.000 7         0.00007        -0.081 7        43.594           0.000 6         0.00006        -0.171 6        37.812  
I09  36171713.962 8 141942768.22008      -119.914 8        50.781    36171708.341 7 300671213.83507      -254.375 7        45.000  
I10  39460954.023 7 154850208.99107       -63.660 7        43.281    39460947.869 5 328012869.74405      -135.241 5        35.781  
> 2024 01 01  0  4 30.0000000  0  9      -209.999351223950
I01         0.000 8         0.00008        -0.013 8        50.781           0.000 3         0.00003        -0.028 3        22.656  
I02  39507412.301 6 155032399.65606        80.420 6        41.562    39507406.285 5 328399083.78805       170.476 5        35.156  
I03  36494136.924 8 143207710.86708         4.494 8        50.312    36494131.015 7 303351253.95707         9.582 7        44.531  
I04         0.000 7         0.00007        -0.013 7        44.219           0.000 6         0.00006        -0.028 6        37.188  
I05         0.000 8         0.00008        -0.013 8        48.594           0.000 7         0.00007        -0.028 7        42.344  
I06  38395967.568 7 150670962.07307       -48.090 7        44.844    38395960.197 6 319160244.84006      -101.810 6        38.281  
I07         0.000 7         0.00007        -0.013 7        43.594           0.000 6         0.00006        -0.028 6        37.812  
I09  36170797.526 8 141939171.77208      -119.864 8        50.625    36170791.728 7 300663595.60707      -253.889 7        45.000  
I10  39460467.032 7 154848297.62107       -63.559 7        43.281    39460461.149 5 328008820.98205      -134.846 5        35.938  
> 2024 01 01  0  5  0.0000000  0  9      -210.278899298743
I01         0.000 8         0.00008         0.024 8        50.625           0.000 3         0.00003         0.052 3        23.281  
I02  39508018.601 6 155034779.86106        78.617 6        41.406    39508013.118 5 328404125.71505       166.725 5        35.000  
I03  36494172.187 8 143207849.90608         4.775 8        50.312    36494166.412 7 303351548.47107        10.060 7        44.531  
I04         0.000 7         0.00007         0.024 7        44.062           0.000 6         0.00006         0.052 6        37.656  
I05         0.000 8         0.00008         0.024 8        48.438           0.000 7         0.00007         0.052 7        42.188  
I06  38395599.947 7 150669519.50707       -47.899 7        44.844    38395592.486 6 319157189.08606      -101.341 6        38.281  
I07         0.000 7         0.00007         0.024 7        43.594           0.000 6         0.00006         0.052 6        37.812  
I09  36169881.085 8 141935575.97508      -119.782 8        50.625    36169875.568 7 300655978.75407      -253.784 7        45.000  
I10  39459979.014 7 154846383.40407       -63.780 7        43.281    39459973.049 5 328004766.16705      -135.242 5        35.625  
> 2024 01 01  0  5 30.0000000  0  9      -210.464305070401
I01         0.000 8         0.00008        -0.022 8        50.781           0.000 4         0.00004        -0.047 4        25.156  
I02  39508610.405 6 155037102.93806        76.710 6        41.406    39508604.416 5 328409046.62005       162.024 5        34.688  
I03  36494208.723 8 143207993.56808         4.827 8        50.312    36494203.016 7 303351852.78407        10.116 7        44.375  
I04         0.000 7         0.00007        -0.022 7        44.219           0.000 6         0.00006        -0.047 6        37.656  
I05         0.000 8         0.00008        -0.022 8        48.281           0.000 7         0.00007        -0.047 7        42.031  
I06  38395232.315 7 150668075.88507       -48.210 7        44.844    38395224.515 6 319154131.09706      -101.943 6        38.438  
I07         0.000 7         0.00007        -0.022 7        43.594           0.000 6         0.00006        -0.047 6        37.656  
I09  36168964.864 8 141931980.79908      -119.835 8        50.625    36168959.302 7 300648363.21807      -253.842 7        44.688  
I10  39459490.683 7 154844466.30807       -63.876 7        43.125    39459484.468 5 328000705.28505      -135.334 5        35.469  
> 2024 01 01  0  6  0.0000000  0  9      -210.668668811847
I01         0.000 8         0.00008        -0.089 8        50.625           0.000 3         0.00003        -0.189 3        22.031  
I02  39509188.113 6 155039368.68406        74.603 6        41.406    39509181.943 5 328413846.05905       157.478 5        34.531  
I03  36494246.633 8 143208141.84908         4.833 8        50.312    36494240.857 7 303352166.87407        10.354 7        44.531  
I04         0.000 7         0.00007        -0.089 7        44.219           0.000 6         0.00006        -0.189 6        38.125  
I05         0.000 8         0.00008        -0.089 8        48.125           0.000 7         0.00007        -0.189 7        42.031  
I06  38394863.929 7 150666631.20007       -48.272 7        45.000    38394856.497 6 319151070.86906      -102.475 6        38.281  
I07         0.000 7         0.00007        -0.089 7        43.594           0.000 6         0.00006        -0.189 6        37.812  
I09  36168048.925 8 141928386.24208      -119.875 8        50.625    36168043.176 7 300640748.98907      -253.988 7        44.844  
I10  39459001.448 7 154842546.38807       -64.185 7        43.125    39458995.100 5 327996638.39705      -135.723 5        35.469  
> 2024 01 01  0  6 30.0000000  0  9      -210.855945352563
I01         0.000 8         0.00008        -0.075 8        50.781           0.000 3         0.00003        -0.160 3        23.281  
I02  39509751.337 6 155041579.83506        72.585 6        41.562    39509745.888 5 328418529.87405       153.654 5        35.312  
I03  36494285.440 8 143208294.74608         5.139 8        50.469    36494279.917 7 303352490.75807        10.754 7        44.531  
I04         0.000 7         0.00007        -0.075 7        44.219           0.000 6         0.00006        -0.160 6        37.969  
I05         0.000 8         0.00008        -0.075 8        48.438           0.000 7         0.00007        -0.160 7        42.188  
I06  38394495.505 7 150665185.46107       -48.170 7        45.000    38394488.106 6 319148008.40206      -102.298 6        38.438  
I07         0.000 7         0.00007        -0.075 7        43.594           0.000 6         0.00006        -0.160 6        37.656  
I09  36167132.900 8 141924792.29508      -119.924 8        50.625    36167127.394 7 300633136.05707      -253.891 7        44.688  
I10  39458511.170 7 154840623.58107       -64.237 7        42.031    39458505.125 5 327992565.48605      -135.827 5        35.625  
> 2024 01 01  0  7  0.0000000  0  9      -210.900897406789
I01         0.000 8         0.00008        -0.095 8        50.625           0.000 3         0.00003        -0.201 3        21.094  
I02  39510299.892 6 155043732.60206        70.538 6        41.562    39510294.065 5 328423090.02005       149.258 5        35.156  
I03  36494325.824 8 143208452.27408         5.236 8        50.469    36494319.764 7 303352824.43907        11.132 7        44.375  
I04         0.000 7         0.00007        -0.095 7        44.375           0.000 6         0.00006        -0.201 6        37.812  
I05         0.000 8         0.00008        -0.095 8        48.438           0.000 7         0.00007        -0.201 7        42.500  
I06  38394126.711 7 150663738.71307       -48.282 7        44.844    38394119.451 6 319144943.78606      -102.285 6        38.594  
I07         0.000 7         0.00007        -0.095 7        43.594           0.000 6         0.00006        -0.201 6        37.812  
I09  36166217.207 8 141921198.91808      -119.929 8        50.625    36166211.432 7 300625524.33107      -253.886 7        44.531  
I10  39458020.425 7 154838698.06207       -64.211 7        42.812    39458014.382 5 327988486.65105      -136.487 5        35.156  
> 2024 01 01  0  7 30.0000000  0  9      -210.410045938245
I01         0.000 8         0.00008        -0.104 8        50.625           0.000 3         0.00003        -0.220 3        23.750  
I02  39510834.345 6 155045829.17106        68.613 6        41.719    39510828.633 5 328427531.10805       145.337 5        35.156  
I03  36494367.039 8 143208614.43408         5.349 8        50.469    36494361.204 7 303353167.93207        11.411 7        44.375  
I04         0.000 7         0.00007        -0.104 7        44.375           0.000 6         0.00006        -0.220 6        37.344  
I05         0.000 8         0.00008        -0.104 8        48.281           0.000 7         0.00007        -0.220 7        42.500  
I06  38393757.924 7 150662290.91207       -48.298 7        45.000    38393750.960 6 319141876.95306      -102.466 6        38.594  
I07         0.000 7         0.00007        -0.104 7        43.594           0.000 6         0.00006        -0.220 6        37.812  
I09  36165301.610 8 141917606.09708      -119.914 8        50.625    36165295.504 7 300617913.79207      -253.929 7        44.375  
I10  39457528.964 7 154836769.69807       -64.336 7        42.812    39457523.002 5 327984401.87005      -136.346 5        35.312  
> 2024 01 01  0  8  0.0000000  0  9      -211.166453585378
I01         0.000 8         0.00008        -0.086 8        50.781           0.000 4         0.00004        -0.182 4        25.469  
I02  39511353.633 6 155047868.53206        67.016 6        41.719    39511347.679 5 328431851.01405       141.743 5        34.688  
I03  36494409.742 8 143208781.17708         5.553 8        50.469    36494403.752 7 303353521.14507        11.760 7        44.375  
I04         0.000 7         0.00007        -0.086 7        44.375           0.000 6         0.00006        -0.182 6        36.875  
I05         0.000 8         0.00008        -0.086 8        48.281           0.000 7         0.00007        -0.182 7        42.656  
I06  38393388.588 7 150660842.09607       -48.541 7        45.000    38393381.139 6 319138807.95806      -102.360 6        38.594  
I07         0.000 7         0.00007        -0.086 7        43.438           0.000 6         0.00006        -0.182 6        37.812  
I09  36164386.255 8 141914013.82508      -119.818 8        50.781    36164380.250 7 300610304.41607      -253.740 7        44.531  
I10  39457036.948 7 154834838.51307       -64.464 7        42.969    39457031.203 5 327980311.13805      -136.461 5        35.781  
> 2024 01 01  0  8 30.0000000  0  9      -211.155295625329
I01         0.000 8         0.00008        -0.096 8        50.781           0.000 4         0.00004        -0.203 4        24.375  
I02  39511859.087 6 155049851.02806        65.014 6        41.406    39511853.309 5 328436050.49105       137.825 5        34.688  
I03  36494453.198 8 143208952.55108         5.694 8        50.312    36494447.472 7 303353884.16307        12.053 7        44.531  
I04         0.000 7         0.00007        -0.096 7        44.219           0.000 6         0.00006        -0.203 6        37.188  
I05         0.000 8         0.00008        -0.096 8        48.125           0.000 7         0.00007        -0.203 7        42.344  
I06  38393019.121 7 150659392.27807       -48.434 7        44.844    38393011.346 6 319135736.84906      -102.380 6        38.281  
I07         0.000 7         0.00007        -0.096 7        43.594           0.000 6         0.00006        -0.203 6        37.656  
I09  36163471.000 8 141910422.07208      -119.829 8        50.625    36163465.034 7 300602696.14307      -253.731 7        44.531  
I10  39456544.337 7 154832904.55407       -64.646 7        42.969    39456538.055 5 327976214.51305      -137.225 5        35.469  
> 2024 01 01  0  9  0.0000000  0  9      -211.063664986536
I01         0.000 8         0.00008        -0.084 8        50.781           0.000 4         0.00004        -0.179 4        25.469  
I02  39512350.031 6 155051777.30406        63.053 6        41.719    39512343.821 5 328440130.84405       133.322 5        35.000  
I03  36494497.960 8 143209128.54008         5.845 8        50.312    36494492.428 7 303354256.95607        12.579 7        44.531  
I04         0.000 7         0.00007        -0.084 7        44.062           0.000 6         0.00006        -0.179 6        37.188  
I05         0.000 8         0.00008        -0.084 8        48.281           0.000 7         0.00007        -0.179 7        42.344  
I06  38392649.486 7 150657941.42707       -48.401 7        44.844    38392641.661 6 319132663.54406      -102.524 6        38.125  
I07         0.000 7         0.00007        -0.084 7        43.438           0.000 6         0.00006        -0.179 6        37.969  
I09  36162555.857 8 141906830.83908      -119.708 8        50.625    36162549.710 7 300595088.96307      -253.812 7        44.375  
I10  39456050.559 7 154830967.80507       -64.722 7        42.969    39456044.582 5 327972111.98205      -137.162 5        35.625  
> 2024 01 01  0  9 30.0000000  0  9      -211.136465262991
I01         0.000 8         0.00008        -0.049 8        50.781           0.000 3         0.00003        -0.104 3        21.875  
I02  39512826.637 6 155053647.32806        61.287 6        41.719    39512820.801 5 328444092.07105       130.183 5        35.312  
I03  36494544.097 8 143209309.16108         6.098 8        50.312    36494538.213 7 303354639.56307        12.893 7        44.531  
I04         0.000 7         0.00007        -0.049 7        43.750           0.000 6         0.00006        -0.104 6        37.188  
I05         0.000 8         0.00008        -0.049 8        48.281           0.000 7         0.00007        -0.104 7        42.344  
I06  38392279.197 7 150656489.55007       -48.355 7        44.844    38392271.745 6 319129588.08206      -102.627 6        37.969  
I07         0.000 7         0.00007        -0.049 7        43.594           0.000 6         0.00006        -0.104 6        37.812  
I09  36161640.822 8 141903240.07808      -119.727 8        50.781    36161634.673 7 300587482.78607      -253.551 7        44.375  
I10  39455556.401 7 154829028.30307       -64.728 7        42.969    39455550.542 5 327968003.62605      -137.105 5        35.938  
> 2024 01 01  0 10  0.0000000  0  9      -210.667057626751
I01         0.000 8         0.00008        -0.008 8        50.781           0.000 3         0.00003        -0.018 3        23.906  
I02  39513288.173 6 155055459.91906        59.770 6        41.406    39513282.823 5 328447931.62905       125.588 5        35.000  
I03  36494591.150 8 143209494.37008         6.263 8        50.312    36494585.512 7 303355031.88807        13.331 7        44.531  
I04         0.000 7         0.00007        -0.008 7        43.906           0.000 6         0.00006        -0.018 6        37.031  
I05         0.000 8         0.00008        -0.008 8        48.125           0.000 7         0.00007        -0.018 7        42.500  
I06  38391909.216 7 150655036.69507       -48.388 7        44.844    38391901.657 6 319126510.54206      -102.609 6        38.125  
I07         0.000 7         0.00007        -0.008 7        43.438           0.000 6         0.00006        -0.018 6        37.969  
I09  36160726.078 8 141899649.80408      -119.575 8        50.781    36160719.835 7 300579877.65107      -253.506 7        44.531  
I10  39455061.402 7 154827086.04107       -64.935 7        42.969    39455055.278 5 327963889.42605      -137.001 5        35.938  
> 2024 01 01  0 10 30.0000000  0  9      -210.782839853084
I01         0.000 8         0.00008        -0.101 8        50.781           0.000 4         0.00004        -0.215 4        24.844  
I02  39513735.589 6 155057215.14406        57.417 6        41.406    39513730.588 5 328451649.66405       122.185 5        35.469  
I03  36494639.643 8 143209684.20208         6.190 8        50.312    36494633.966 7 303355434.01107        13.374 7        44.531  
I04         0.000 7         0.00007        -0.101 7        43.906           0.000 6         0.00006        -0.215 6        37.344  
I05         0.000 8         0.00008        -0.101 8        48.281           0.000 7         0.00007        -0.215 7        42.500  
I06  38391539.001 7 150653582.88007       -48.525 7        44.844    38391530.925 6 319123430.96006      -102.831 6        37.969  
I07         0.000 7         0.00007        -0.101 7        43.594           0.000 6         0.00006        -0.215 6        37.812  
I09  36159811.286 8 141896059.98308      -119.796 8        50.938    36159805.269 7 300572273.45407      -253.770 7        44.531  
I10  39454566.021 7 154825141.03607       -64.928 7        42.812    39454560.234 5 327959769.41805      -137.624 5        35.781  
> 2024 01 01  0 11  0.0000000  0  9      -211.008204998339
I01         0.000 8         0.00008        -0.111 8        50.781           0.000 4         0.00004        -0.235 4        24.688  
I02  39514168.394 6 155058913.52406        55.483 6        41.406    39514163.536 5 328455247.28805       117.124 5        35.312  
I03  36494689.141 8 143209878.62008         6.550 8        50.156    36494683.404 7 303355845.85107        13.526 7        44.688  
I04         0.000 7         0.00007        -0.111 7        44.062           0.000 6         0.00006        -0.235 6        37.500  
I05         0.000 8         0.00008        -0.111 8        48.438           0.000 7         0.00007        -0.235 7        42.500  
I06  38391167.889 7 150652128.00807       -48.427 7        44.688    38391160.181 6 319120349.15306      -103.077 6        38.125  
I07         0.000 7         0.00007        -0.111 7        43.594           0.000 6         0.00006        -0.235 6        37.969  
I09  36158896.872 8 141892470.64108      -119.864 8        51.094    36158890.684 7 300564670.26307      -253.620 7        44.531  
I10  39454069.322 7 154823193.29307       -65.325 7        42.812    39454063.415 6 327955643.62306      -138.091 6        36.094  
> 2024 01 01  0 11 30.0000000  0  9      -211.213065157767
I01         0.000 8         0.00008        -0.041 8        50.938           0.000 3         0.00003        -0.087 3        21.875  
I02  39514586.545 6 155060554.64306        53.943 6        41.406    39514581.182 5 328458723.61605       114.375 5        35.469  
I03  36494739.910 8 143210077.69208         6.616 8        50.156    36494734.536 7 303356267.52607        14.108 7        44.531  
I04         0.000 7         0.00007        -0.041 7        43.906           0.000 6         0.00006        -0.087 6        37.500  
I05         0.000 8         0.00008        -0.041 8        48.594           0.000 7         0.00007        -0.087 7        42.500  
I06  38390797.203 7 150650672.15707       -48.593 7        44.844    38390789.381 6 319117265.28206      -102.400 6        38.125  
I07         0.000 7         0.00007        -0.041 7        43.438           0.000 6         0.00006        -0.087 6        37.812  
I09  36157982.388 8 141888881.71108      -119.628 8        51.094    36157976.187 7 300557067.97907      -253.519 7        44.688  
I10  39453572.407 7 154821242.83107       -65.066 7        42.812    39453566.235 5 327951512.04905      -137.843 5        35.938  
> 2024 01 01  0 12  0.0000000  0  9      -211.354467384313
I01         0.000 8         0.00008        -0.041 8        50.938           0.000 3         0.00003        -0.086 3        23.906  
I02  39514990.546 6 155062139.69906        51.921 6        41.719    39514985.460 5 328462081.19205       109.922 5        35.625  
I03  36494791.761 8 143210281.33208         6.815 8        50.312    36494786.097 7 303356698.90407        14.603 7        44.531  
I04         0.000 7         0.00007        -0.041 7        43.906           0.000 6         0.00006        -0.086 6        37.500  
I05         0.000 8         0.00008        -0.041 8        48.438           0.000 7         0.00007        -0.086 7        42.656  
I06  38390425.906 7 150649215.37707       -48.569 7        44.844    38390418.268 6 319114179.41806      -102.890 6        38.281  
I07         0.000 7         0.00007        -0.041 7        43.438           0.000 6         0.00006        -0.086 6        37.812  
I09  36157067.929 8 141885293.20408      -119.740 8        50.938    36157061.987 7 300549466.57707      -253.487 7        44.844  
I10  39453074.461 7 154819289.65507       -65.001 7        42.812    39453068.623 5 327947374.74205      -138.408 5        35.781  
> 2024 01 01  0 12 30.0000000  0  9      -211.109940295176
I01         0.000 8         0.00008        -0.165 8        50.938           0.000 4         0.00004        -0.350 4        25.156  
I02  39515380.047 6 155063668.10906        49.781 6        41.406    39515375.117 5 328465318.78605       105.382 5        35.469  
I03  36494844.864 8 143210489.56408         6.827 8        50.312    36494839.099 7 303357139.99307        14.461 7        44.375  
I04         0.000 7         0.00007        -0.165 7        43.594           0.000 6         0.00006        -0.350 6        37.656  
I05         0.000 8         0.00008        -0.165 8        48.281           0.000 7         0.00007        -0.350 7        42.344  
I06  38390054.385 7 150647757.60307       -48.715 7        44.688    38390046.439 6 319111091.45906      -102.925 6        38.438  
I07         0.000 7         0.00007        -0.165 7        43.438           0.000 6         0.00006        -0.350 6        38.125  
I09  36156153.666 8 141881705.07808      -119.774 8        50.938    36156147.678 7 300541865.98007      -253.775 7        44.844  
I10  39452576.259 7 154817333.78807       -65.782 7        42.812    39452569.879 5 327943231.73405      -138.460 5        35.781  
> 2024 01 01  0 13  0.0000000  0  9      -211.676954314816
I01         0.000 8         0.00008        -0.015 8        50.938           0.000 4         0.00004        -0.031 4        25.312  
I02  39515755.253 6 155065139.98906        48.375 6        41.562    39515750.007 6 328468436.62506       101.750 6        36.094  
I03  36494899.018 8 143210702.40808         7.084 8        50.312    36494893.448 7 303357590.86007        15.123 7        44.531  
I04         0.000 7         0.00007        -0.015 7        43.594           0.000 6         0.00006        -0.031 6        37.812  
I05         0.000 8         0.00008        -0.015 8        48.281           0.000 7         0.00007        -0.031 7        42.500  
I06  38389682.666 7 150646298.84307       -48.638 7        44.688    38389674.713 6 319108001.42806      -103.313 6        38.281  
I07         0.000 7         0.00007        -0.015 7        43.594           0.000 6         0.00006        -0.031 6        37.812  
I09  36155239.355 8 141878117.36208      -119.673 8        50.938    36155233.301 7 300534266.25307      -253.337 7        44.688  
I10  39452077.110 7 154815375.25207       -65.155 7        42.500    39452070.709 5 327939083.02405      -138.479 5        35.312  
> 2024 01 01  0 13 30.0000000  0  9      -211.658512863682
I01         0.000 8         0.00008        -0.104 8        50.938           0.000 3         0.00003        -0.220 3        23.906  
I02  39516115.965 6 155066555.53206        46.309 6        41.562    39516111.027 6 328471435.14706        97.376 6        36.250  
I03  36494954.481 8 143210919.80608         7.240 8        50.312    36494948.822 7 303358051.36707        15.307 7        44.531  
I04         0.000 7         0.00007        -0.104 7        43.594           0.000 6         0.00006        -0.220 6        37.812  
I05         0.000 8         0.00008        -0.104 8        48.438           0.000 7         0.00007        -0.220 7        42.500  
I06  38389310.778 7 150644839.17107       -48.787 7        44.844    38389303.064 6 319104909.43506      -103.151 6        37.969  
I07         0.000 7         0.00007        -0.104 7        43.438           0.000 6         0.00006        -0.220 6        37.812  
I09  36154325.367 8 141874530.00108      -119.747 8        51.094    36154319.211 7 300526667.27707      -253.449 7        44.688  
I10  39451577.004 7 154813414.01507       -65.760 7        42.344    39451570.754 5 327934928.66905      -138.725 5        34.844  
> 2024 01 01  0 14  0.0000000  0  9      -211.423442041803
I01         0.000 8         0.00008        -0.139 8        50.938           0.000 3         0.00003        -0.294 3        22.969  
I02  39516462.354 6 155067913.61406        43.944 6        41.406    39516457.325 6 328474311.91006        93.061 6        36.406  
I03  36495011.162 8 143211141.83208         7.314 8        50.312    36495005.513 7 303358521.68307        15.471 7        44.531  
I04         0.000 7         0.00007        -0.139 7        43.438           0.000 6         0.00006        -0.294 6        37.969  
I05         0.000 8         0.00008        -0.139 8        48.594           0.000 7         0.00007        -0.294 7        42.500  
I06  38388938.464 7 150643378.49407       -48.911 7        45.000    38388930.259 6 319101815.33806      -103.565 6        37.812  
I07         0.000 7         0.00007        -0.139 7        43.281           0.000 6         0.00006        -0.294 6        37.656  
I09  36153411.290 8 141870943.03608      -119.727 8        51.250    36153404.979 7 300519069.14707      -253.541 7        44.844  
I10  39451076.698 7 154811450.10407       -65.555 7        42.500    39451070.496 5 327930768.61905      -138.908 5        35.312  
> 2024 01 01  0 14 30.0000000  0  9      -211.679162321839
I01         0.000 8         0.00008         0.082 8        51.094           0.000 4         0.00004         0.174 4        24.531  
I02  39516793.910 6 155069215.81106        43.194 6        41.406    39516788.715 6 328477070.34506        91.175 6        36.094  
I03  36495068.906 8 143211368.42108         7.741 8        50.312    36495063.112 7 303359001.66807        16.278 7        44.531  
I04         0.000 7         0.00007         0.082 7        43.438           0.000 6         0.00006         0.174 6        38.125  
I05         0.000 8         0.00008         0.082 8        48.438           0.000 7         0.00007         0.174 7        42.344  
I06  38388566.181 7 150641916.87807       -48.692 7        44.844    38388558.015 6 319098719.23306      -103.175 6        37.969  
I07         0.000 7         0.00007         0.082 7        43.438           0.000 6         0.00006         0.174 6        37.969  
I09  36152497.297 8 141867356.41908      -119.467 8        51.250    36152490.998 7 300511471.75007      -252.926 7        44.844  
I10  39450575.484 7 154809483.55107       -65.351 7        42.500    39450569.763 5 327926602.96705      -138.790 5        35.312  
> 2024 01 01  0 15  0.0000000  0  9      -211.941014638643
I01         0.000 8         0.00008        -0.061 8        51.094           0.000 3         0.00003        -0.129 3        21.719  
I02  39517110.503 6 155070459.53006        40.540 6        41.250    39517105.836 6 328479704.88906        85.458 6        36.406  
I03  36495127.762 8 143211599.59508         7.787 8        50.312    36495122.113 7 303359491.35707        16.326 7        44.531  
I04         0.000 7         0.00007        -0.061 7        43.281           0.000 6         0.00006        -0.129 6        37.500  
I05         0.000 8         0.00008        -0.061 8        48.438           0.000 7         0.00007        -0.129 7        42.188  
I06  38388193.394 7 150640454.34107       -48.785 7        44.844    38388185.351 6 319095621.18506      -103.567 6        37.969  
I07         0.000 7         0.00007        -0.061 7        43.438           0.000 6         0.00006        -0.129 6        37.969  
I09  36151583.561 8 141863770.14008      -119.642 8        51.406    36151577.397 7 300503875.06707      -253.327 7        44.688  
I10  39450073.895 7 154807514.35607       -65.748 7        42.500    39450067.458 5 327922431.72505      -139.224 5        35.156  
> 2024 01 01  0 15 30.0000000  0  9      -212.093930975927
I01         0.000 8         0.00008        -0.044 8        51.094           0.000 4         0.00004        -0.094 4        24.219  
I02  39517413.625 6 155071648.32206        38.633 6        41.406    39517408.901 6 328482223.08006        81.587 6        36.406  
I03  36495187.835 8 143211835.35908         7.862 8        50.312    36495182.300 7 303359990.77307        16.701 7        44.531  
I04         0.000 7         0.00007        -0.044 7        43.438           0.000 6         0.00006        -0.094 6        37.188  
I05         0.000 8         0.00008        -0.044 8        48.438           0.000 6         0.00006        -0.094 6        41.875  
I06  38387820.415 7 150638990.82907       -48.597 7        44.844    38387812.515 6 319092521.08406      -103.624 6        38.125  
I07         0.000 7         0.00007        -0.044 7        43.438           0.000 6         0.00006        -0.094 6        37.812  
I09  36150669.673 8 141860184.19508      -119.589 8        51.250    36150663.564 7 300496279.09207      -253.374 7        44.844  
I10  39449571.051 7 154805542.54607       -65.837 7        42.500    39449564.760 5 327918254.92305      -139.060 5        35.156  
> 2024 01 01  0 16  0.0000000  0  9      -212.233939888969
I01         0.000 8         0.00008         0.105 8        51.094           0.000 3         0.00003         0.222 3        20.312  
I02  39517702.048 6 155072779.69806        37.454 6        41.406    39517697.214 6 328484619.64406        78.233 6        36.094  
I03  36495249.109 8 143212075.69508         8.379 8        50.312    36495243.413 7 303360499.86807        17.394 7        44.531  
I04         0.000 7         0.00007         0.105 7        43.750           0.000 6         0.00006         0.222 6        37.500  
I05         0.000 8         0.00008         0.105 8        48.438           0.000 7         0.00007         0.222 7        42.188  
I06  38387447.371 7 150637526.39707       -48.873 7        45.000    38387439.460 6 319089419.02906      -103.286 6        37.969  
I07         0.000 7         0.00007         0.105 7        43.438           0.000 6         0.00006         0.222 6        37.969  
I09  36149756.063 8 141856598.56208      -119.296 8        51.250    36149749.774 7 300488683.77507      -252.987 7        45.000  
I10  39449068.062 7 154803568.08007       -65.544 7        42.656    39449061.319 5 327914072.51705      -139.266 5        34.688  
> 2024 01 01  0 16 30.0000000  0  9      -211.857385001387
I01         0.000 8         0.00008        -0.031 8        51.094           0.000 3         0.00003        -0.066 3        23.125  
I02  39517976.005 6 155073855.29006        35.162 6        41.562    39517971.533 6 328486898.07006        73.602 6        36.406  
I03  36495311.510 8 143212320.61708         8.121 8        50.312    36495305.778 7 303361018.67807        17.447 7        44.531  
I04         0.000 7         0.00007        -0.031 7        43.906           0.000 6         0.00006        -0.066 6        37.656  
I05         0.000 8         0.00008        -0.031 8        48.594           0.000 7         0.00007        -0.066 7        42.188  
I06  38387074.018 7 150636061.05007       -48.853 7        44.844    38387065.760 6 319086315.03206      -103.491 6        37.969  
I07         0.000 7         0.00007        -0.031 7        43.438           0.000 6         0.00006        -0.066 6        37.969  
I09  36148842.496 8 141853013.26208      -119.600 8        51.406    36148836.306 7 300481089.16407      -253.103 7        45.000  
I10  39448564.479 7 154801591.03807       -65.911 7        42.500    39448557.880 5 327909884.63605      -139.816 5        34.844  
> 2024 01 01  0 17  0.0000000  0  9      -211.926590578011
I01         0.000 8         0.00008        -0.103 8        50.938           0.000 3         0.00003        -0.219 3        21.719  
I02  39518235.958 6 155074873.90106        32.940 6        41.406    39518230.669 6 328489055.77406        69.626 6        36.406  
I03  36495375.113 8 143212570.13008         8.248 8        50.312    36495369.445 7 303361547.20907        17.583 7        44.531  
I04         0.000 7         0.00007        -0.103 7        44.062           0.000 6         0.00006        -0.219 6        37.656  
I05         0.000 8         0.00008        -0.103 8        48.750           0.000 6         0.00006        -0.219 6        41.875  
I06  38386700.405 7 150634594.77207       -49.123 7        45.000    38386692.533 6 319083209.07706      -103.735 6        37.969  
I07         0.000 7         0.00007        -0.103 7        43.438           0.000 6         0.00006        -0.219 6        37.969  
I09  36147928.903 8 141849428.24408      -119.611 8        51.406    36147922.619 7 300473495.14707      -253.386 7        45.000  
I10  39448059.986 7 154799611.37107       -66.100 7        42.656    39448053.737 5 327905691.20205      -139.982 5        34.531  
> 2024 01 01  0 17 30.0000000  0  9      -212.720796786542
I01         0.000 8         0.00008        -0.239 8        50.938           0.000 3         0.00003        -0.507 3        23.906  
I02  39518480.597 6 155075835.39006        30.270 6        41.562    39518476.059 6 328491092.49406        65.058 6        36.406  
I03  36495439.808 8 143212824.19808         8.257 8        50.312    36495434.341 7 303362085.40507        17.435 7        44.531  
I04         0.000 7         0.00007        -0.239 7        44.219           0.000 6         0.00006        -0.507 6        37.344  
I05         0.000 8         0.00008        -0.239 8        48.906           0.000 7         0.00007        -0.507 7        42.188  
I06  38386326.543 7 150633127.57507       -49.209 7        45.000    38386318.305 6 319080101.16806      -104.292 6        38.281  
I07         0.000 7         0.00007        -0.239 7        43.438           0.000 6         0.00006        -0.507 6        37.812  
I09  36147015.370 8 141845843.50608      -119.739 8        51.562    36147008.912 7 300465901.72707      -253.823 7        45.000  
I10  39447554.898 7 154797629.11307       -66.424 7        42.656    39447548.113 5 327901492.27605      -140.749 5        34.688  
> 2024 01 01  0 18  0.0000000  0  9      -212.357519878378
I01         0.000 8         0.00008        -0.027 8        50.938           0.000 3         0.00003        -0.058 3        21.250  
I02  39518711.779 6 155076740.67906        29.035 6        41.406    39518706.486 6 328493010.15706        61.419 6        36.250  
I03  36495505.749 8 143213082.83508         8.704 8        50.312    36495500.158 7 303362633.27607        18.419 7        44.531  
I04         0.000 7         0.00007        -0.027 7        44.219           0.000 6         0.00006        -0.058 6        37.344  
I05         0.000 8         0.00008        -0.027 8        48.906           0.000 7         0.00007        -0.058 7        42.188  
I06  38385952.181 7 150631659.49007       -48.875 7        45.000    38385944.355 6 319076991.37206      -103.875 6        38.281  
I07         0.000 7         0.00007        -0.027 7        43.438           0.000 6         0.00006        -0.058 6        37.812  
I09  36146102.023 8 141842259.06408      -119.463 8        51.406    36146095.607 7 300458308.94307      -253.038 7        44.688  
I10  39447049.268 7 154795644.28907       -65.970 7        42.656    39447042.499 5 327897287.92005      -140.495 5        34.844  
> 2024 01 01  0 18 30.0000000  0  9      -212.457908191670
I01         0.000 8         0.00008        -0.049 8        50.938           0.000 4         0.00004        -0.103 4        25.625  
I02  39518927.816 6 155077589.46906        27.417 6        41.562    39518923.294 6 328494808.15606        57.790 6        36.094  
I03  36495572.804 8 143213346.06808         8.761 8        50.312    36495567.183 7 303363190.86907        18.552 7        44.688  
I04         0.000 7         0.00007        -0.049 7        44.219           0.000 6         0.00006        -0.103 6        37.344  
I05         0.000 8         0.00008        -0.049 8        49.062           0.000 6         0.00006        -0.103 6        41.875  
I06  38385578.046 7 150630190.49407       -49.036 7        45.000    38385569.910 6 319073879.66506      -103.867 6        38.438  
I07         0.000 7         0.00007        -0.049 7        43.438           0.000 6         0.00006        -0.103 6        37.969  
I09  36145188.703 8 141838674.90108      -119.550 8        51.406    36145182.264 7 300450716.73607      -253.179 7        44.844  
I10  39446542.967 7 154793656.89007       -66.217 7        42.656    39446535.791 5 327893078.10305      -140.506 5        35.000  
> 2024 01 01  0 19  0.0000000  0  9      -212.395462733169
I01         0.000 8         0.00008        -0.065 8        50.938           0.000 3         0.00003        -0.138 3        23.906  
I02  39519129.899 6 155078381.29906        25.513 6        41.406    39519124.621 6 328496485.48606        53.631 6        36.094  
I03  36495640.998 8 143213613.84408         8.930 8        50.312    36495635.501 7 303363758.08907        18.910 7        44.688  
I04         0.000 7         0.00007        -0.065 7        44.375           0.000 6         0.00006        -0.138 6        36.719  
I05         0.000 8         0.00008        -0.065 8        49.062           0.000 6         0.00006        -0.138 6        41.562  
I06  38385203.442 7 150628720.58407       -49.073 7        45.000    38385195.585 6 319070766.02006      -103.814 6        38.438  
I07         0.000 7         0.00007        -0.065 7        43.281           0.000 6         0.00006        -0.138 6        37.812  
I09  36144275.410 8 141835090.99408      -119.568 8        51.406    36144269.011 7 300443125.06807      -253.340 7        44.844  
I10  39446035.666 7 154791666.94907       -66.429 7        42.656    39446028.899 5 327888862.90905      -140.862 5        34.688  
> 2024 01 01  0 19 30.0000000  0  9      -212.715645765909
I01         0.000 8         0.00008        -0.087 8        50.938           0.000 3         0.00003        -0.185 3        23.750  
I02  39519316.912 6 155079116.43606        23.497 6        41.562    39519311.915 5 328498042.71705        49.853 5        35.938  
I03  36495710.358 8 143213886.19108         9.132 8        50.312    36495704.862 7 303364334.99607        19.232 7        44.531  
I04         0.000 7         0.00007        -0.087 7        44.375           0.000 6         0.00006        -0.185 6        37.031  
I05         0.000 8         0.00008        -0.087 8        48.906           0.000 6         0.00006        -0.185 6        41.562  
I06  38384828.437 7 150627249.79607       -49.128 7        44.844    38384820.894 6 319067650.51306      -103.957 6        38.594  
I07         0.000 7         0.00007        -0.087 7        43.438           0.000 6         0.00006        -0.185 6        37.969  
I09  36143362.162 8 141831507.33508      -119.524 8        51.406    36143355.860 7 300435533.94007      -253.194 7        45.000  
I10  39445528.169 7 154789674.45107       -66.666 7        42.969    39445520.861 5 327884642.28105      -140.849 5        35.156  
> 2024 01 01  0 20  0.0000000  0  9      -212.454790022881
I01         0.000 8         0.00008        -0.153 8        50.938           0.000 4         0.00004        -0.324 4        24.375  
I02  39519490.014 6 155079794.84106        21.443 6        41.562    39519485.076 5 328499479.83905        45.578 5        35.625  
I03  36495780.980 8 143214163.09208         9.125 8        50.312    36495775.384 7 303364921.55307        19.312 7        44.688  
I04         0.000 7         0.00007        -0.153 7        44.219           0.000 6         0.00006        -0.324 6        37.656  
I05         0.000 8         0.00008        -0.153 8        48.750           0.000 6         0.00006        -0.324 6        41.250  
I06  38384453.700 7 150625778.13107       -49.272 7        44.844    38384445.906 6 319064533.14606      -104.717 6        38.438  
I07         0.000 7         0.00007        -0.153 7        43.438           0.000 6         0.00006        -0.324 6        38.125  
I09  36142449.064 8 141827923.93208      -119.602 8        51.406    36142442.623 7 300427943.34807      -253.332 7        45.156  
I10  39445019.896 7 154787679.41607       -66.877 7        42.969    39445012.764 5 327880416.28505      -141.340 5        35.156  
> 2024 01 01  0 20 30.0000000  0  9      -212.281085853902
I01         0.000 8         0.00008        -0.104 8        50.938           0.000 4         0.00004        -0.220 4        24.375  
I02  39519648.704 6 155080417.26306        19.759 6        41.719    39519643.258 5 328500798.32605        42.020 5        35.938  
I03  36495852.753 8 143214444.53408         9.332 8        50.312    36495847.130 7 303365517.74307        19.750 7        44.688  
I04         0.000 7         0.00007        -0.104 7        44.062           0.000 6         0.00006        -0.220 6        37.656  
I05         0.000 8         0.00008        -0.104 8        48.750           0.000 6         0.00006        -0.220 6        41.406  
I06  38384078.333 7 150624305.62707       -49.270 7        44.844    38384070.892 6 319061414.00606      -104.414 6        38.750  
I07         0.000 7         0.00007        -0.104 7        43.438           0.000 6         0.00006        -0.220 6        38.125  
I09  36141535.931 8 141824340.76308      -119.527 8        51.406    36141529.747 7 300420353.25007      -253.167 7        45.156  
I10  39444510.854 7 154785681.88007       -66.826 7        42.969    39444503.812 5 327876184.99405      -141.334 5        35.469  
> 2024 01 01  0 21  0.0000000  0  9      -212.710046560951
I01         0.000 8         0.00008        -0.178 8        50.938           0.000 4         0.00004        -0.378 4        25.000  
I02  39519792.690 6 155080982.98606        17.468 6        41.875    39519787.193 5 328501996.74705        37.127 5        35.781  
I03  36495925.647 8 143214730.55208         9.368 8        50.312    36495920.136 7 303366123.60807        20.013 7        44.688  
I04         0.000 7         0.00007        -0.178 7        44.375           0.000 6         0.00006        -0.378 6        37.344  
I05         0.000 8         0.00008        -0.178 8        48.438           0.000 6         0.00006        -0.378 6        41.562  
I06  38383702.853 7 150622832.23107       -49.262 7        44.844    38383695.502 6 319058292.96906      -104.680 6        38.438  
I07         0.000 7         0.00007        -0.178 7        43.438           0.000 6         0.00006        -0.378 6        37.969  
I09  36140622.839 8 141820757.78708      -119.699 8        51.406    36140616.612 7 300412763.58007      -253.296 7        45.000  
I10  39444001.257 7 154783681.81507       -66.988 7        42.969    39443993.875 5 327871948.35805      -141.464 5        35.312  
> 2024 01 01  0 21 30.0000000  0  9      -212.417655330382
I01         0.000 8         0.00008        -0.081 8        50.781           0.000 3         0.00003        -0.171 3        21.094  
I02  39519922.761 6 155081492.58206        16.069 6        41.875    39519917.076 5 328503076.25405        34.436 5        35.938  
I03  36495999.601 8 143215021.14108         9.640 8        50.312    36495994.022 7 303366739.15907        20.529 7        44.844  
I04         0.000 7         0.00007        -0.081 7        44.531           0.000 6         0.00006        -0.171 6        38.281  
I05         0.000 8         0.00008        -0.081 8        48.281           0.000 6         0.00006        -0.171 6        41.562  
I06  38383327.138 7 150621357.94507       -49.189 7        44.688    38383319.611 6 319055170.06706      -104.348 6        38.594  
I07         0.000 7         0.00007        -0.081 7        43.438           0.000 6         0.00006        -0.171 6        38.125  
I09  36139710.007 8 141817175.08008      -119.512 8        51.406    36139703.604 7 300405174.45807      -253.140 7        45.156  
I10  39443491.095 7 154781679.26707       -66.981 7        42.969    39443483.735 5 327867706.45605      -141.665 5        35.469  
> 2024 01 01  0 22  0.0000000  0  9      -212.321754859722
I01         0.000 8         0.00008        -0.050 8        50.938           0.000 4         0.00004        -0.106 4        25.000  
I02  39520038.439 6 155081945.60806        14.107 6        41.875    39520032.840 6 328504035.90906        30.040 6        36.094  
I03  36496074.821 8 143215316.25408         9.845 8        50.312    36496069.318 7 303367364.29407        21.092 7        44.844  
I04         0.000 7         0.00007        -0.050 7        44.688           0.000 6         0.00006        -0.106 6        37.969  
I05         0.000 8         0.00008        -0.050 8        48.281           0.000 6         0.00006        -0.106 6        41.562  
I06  38382951.461 7 150619882.80407       -49.197 7        44.688    38382943.715 6 319052045.32506      -104.477 6        38.750  
I07         0.000 7         0.00007        -0.050 7        43.438           0.000 6         0.00006        -0.106 6        37.969  
I09  36138797.114 8 141813592.61008      -119.476 8        51.406    36138790.510 7 300397585.83907      -253.111 7        45.000  
I10  39442979.870 7 154779674.21307       -66.784 7        43.125    39442972.369 5 327863459.25705      -142.157 5        35.312  
> 2024 01 01  0 22 30.0000000  0  9      -212.647333436466
I01         0.000 8         0.00008        -0.031 8        51.094           0.000 3         0.00003        -0.066 3        22.188  
I02  39520139.002 6 155082342.49706        12.319 6        41.719    39520133.977 5 328504876.66705        26.415 5        35.938  
I03  36496151.149 8 143215615.92908        10.138 8        50.312    36496145.754 7 303367999.08607        21.282 7        44.844  
I04         0.000 7         0.00007        -0.031 7        44.375           0.000 6         0.00006        -0.066 6        38.125  
I05         0.000 8         0.00008        -0.031 8        48.438           0.000 6         0.00006        -0.066 6        41.875  
I06  38382575.090 7 150618406.80007       -49.250 7        44.844    38382567.751 6 319048918.80206      -104.324 6        38.594  
I07         0.000 7         0.00007        -0.031 7        43.438           0.000 6         0.00006        -0.066 6        37.812  
I09  36137884.223 8 141810010.35008      -119.434 8        51.406    36137877.548 7 300389997.67307      -253.026 7        45.000  
I10  39442468.328 7 154777666.70007       -66.922 7        43.281    39442461.523 5 327859206.81705      -141.966 5        35.625  
> 2024 01 01  0 23  0.0000000  0  9      -212.911655904060
I01         0.000 8         0.00008         0.036 8        51.094           0.000 4         0.00004         0.076 4        24.688  
I02  39520225.382 6 155082682.20706        10.532 6        41.719    39520220.733 6 328505596.31206        21.750 6        36.406  
I03  36496228.756 8 143215920.15608        10.295 8        50.312    36496223.157 7 303368643.52307        21.677 7        44.844  
I04         0.000 7         0.00007         0.036 7        44.219           0.000 6         0.00006         0.076 6        38.281  
I05         0.000 8         0.00008         0.036 8        48.281           0.000 7         0.00007         0.076 7        42.031  
