     3.03           OBSERVATION DATA     I:IRNSS            RINEX VERSION / TYPE
OBS GEN             Accord              02-JAN-24 00:00     PGM / RUN BY / DATE 
IRNSS                                                       MARKER NAME         
0                                                           MARKER NUMBER       
Human                                                       MARKER TYPE         
Unknown             Accord                                  OBSERVER / AGENCY   
01                  NGS-C60 CV22        1.0                 REC # / TYPE / VERS 
18730               L5S1                                    ANT # / TYPE        
  1243909.4450   5462556.0080   3038758.0532                APPROX POSITION XYZ 
        0.0000         0.0000         0.0000                ANTENNA: DELTA H/E/N
I    8 C5C L5C D5C S5C C9C L9C D9C S9C                      SYS / # / OBS TYPES 
DBHZ                                                        SIGNAL STRENGTH UNIT
SNR is mapped to RINEX snr flag value [1-9]                 COMMENT             
< 12dBHz -> 1; 12-17dBHz -> 2; 18-23dBHz -> 3               COMMENT             
24-29dBHz -> 4; 30-35dBHz -> 5; 36-41dBHz -> 6              COMMENT             
42-47dBHz -> 7; 48-53dBHz -> 8; >= 54dBHz -> 9              COMMENT             
                                                            COMMENT             
    30.000                                                  INTERVAL            
  2024     1     2     0     0    0.0000000     IRN         TIME OF FIRST OBS   
  2024     1     2    23    59   30.0000000     IRN         TIME OF LAST OBS    
                                                            SYS / PHASE SHIFT   
                                                            SYS / PHASE SHIFT   
                                                            END OF HEADER       
> 2024 01 02  0  0  0.0000000  0  9      -214.757841126212
I01         0.000 8         0.00008        -0.107 8        50.625           0.000 4         0.00004        -0.227 4        25.000  
I02  39505818.970 6 155026156.75106        81.640 6        41.406    39505813.760 5 328385855.10705       173.112 5        35.469  
I03  36493094.209 8 143203624.17808         4.215 8        50.312    36493088.775 7 303342593.77007         9.058 7        44.531  
I04         0.000 7         0.00007        -0.107 7        44.219           0.000 6         0.00006        -0.227 6        36.719  
I05         0.000 8         0.00008        -0.107 8        48.438           0.000 7         0.00007        -0.227 7        42.812  
I06  38394259.856 7 150664274.72107       -48.048 7        44.688    38394253.285 6 319145998.69606      -101.636 6        38.281  
I07         0.000 7         0.00007        -0.107 7        43.281           0.000 6         0.00006        -0.227 6        37.812  
I09  36171299.778 8 141941150.04708      -119.923 8        50.469    36171294.808 7 300667691.97607      -254.152 7        45.312  
I10  39457235.355 7 154835532.75307       -63.702 7        43.281    39457229.865 6 327982003.93706      -134.785 6        36.094  
> 2024 01 02  0  0 30.0000000  0  9      -215.794254342195
I01         0.000 8         0.00008        -0.139 8        50.469           0.000 3         0.00003        -0.295 3        23.906  
I02  39506437.442 6 155028583.56906        79.601 6        41.250    39506432.968 5 328390995.75705       169.134 5        35.312  
I03  36493128.189 8 143203757.63708         4.395 8        50.312    36493122.710 7 303342876.49707         9.345 7        44.531  
I04         0.000 7         0.00007        -0.139 7        44.219           0.000 6         0.00006        -0.295 6        37.656  
I05         0.000 8         0.00008        -0.139 8        48.281           0.000 7         0.00007        -0.295 7        42.656  
I06  38393892.785 7 150662834.10607       -48.309 7        44.844    38393885.916 6 319142947.09806      -101.913 6        38.281  
I07         0.000 7         0.00007        -0.139 7        43.281           0.000 6         0.00006        -0.295 6        37.969  
I09  36170383.623 8 141937555.41708      -119.810 8        50.469    36170378.779 7 300660077.61507      -254.018 7        45.156  
I10  39456749.315 7 154833624.61807       -63.857 7        43.125    39456743.580 6 327977962.03106      -135.365 6        36.250  
> 2024 01 02  0  1  0.0000000  0  9      -216.083640134741
I01         0.000 8         0.00008        -0.043 8        50.469           0.000 3         0.00003        -0.091 3        22.188  
I02  39507041.418 6 155030954.70806        78.092 6        41.094    39507037.084 5 328396018.45605       165.306 5        35.469  
I03  36493163.356 8 143203895.69208         4.622 8        50.156    36493157.858 7 303343168.94907         9.765 7        44.531  
I04         0.000 7         0.00007        -0.043 7        43.906           0.000 6         0.00006        -0.091 6        37.656  
I05         0.000 8         0.00008        -0.043 8        48.281           0.000 7         0.00007        -0.091 7        42.188  
I06  38393525.533 7 150661392.42007       -48.086 7        44.688    38393518.949 6 319139893.21606      -101.751 6        38.438  
I07         0.000 7         0.00007        -0.043 7        43.281           0.000 6         0.00006        -0.091 6        37.812  
I09  36169467.761 8 141933961.40408      -119.878 8        50.469    36169462.941 7 300652464.56807      -253.783 7        45.156  
I10  39456262.180 7 154831713.63207       -63.614 7        43.125    39456256.067 6 327973914.11706      -135.138 6        36.094  
> 2024 01 02  0  1 30.0000000  0  9      -216.113617566779
I01         0.000 8         0.00008        -0.117 8        50.469           0.000 4         0.00004        -0.248 4        24.219  
I02  39507631.052 6 155033268.89306        75.983 6        41.250    39507626.381 5 328400920.49505       161.495 5        35.156  
I03  36493199.949 8 143204038.44608         4.632 8        50.312    36493194.280 7 303343471.34607        10.041 7        44.531  
I04         0.000 7         0.00007        -0.117 7        44.062           0.000 6         0.00006        -0.248 6        37.969  
I05         0.000 8         0.00008        -0.117 8        48.125           0.000 7         0.00007        -0.248 7        42.344  
I06  38393157.539 7 150659949.62607       -48.298 7        44.688    38393151.187 6 319136837.01606      -102.218 6        38.594  
I07         0.000 7         0.00007        -0.117 7        43.281           0.000 6         0.00006        -0.248 6        37.656  
I09  36168552.062 8 141930368.05108      -119.857 8        50.469    36168546.901 7 300644852.90007      -254.084 7        45.000  
I10  39455774.353 7 154829799.78307       -63.911 7        42.969    39455768.768 5 327969860.10505      -135.505 5        35.938  
> 2024 01 02  0  2  0.0000000  0  9      -216.785762475105
I01         0.000 8         0.00008         0.020 8        50.469           0.000 3         0.00003         0.041 3        22.031  
I02  39508206.490 6 155035526.53006        74.353 6        41.250    39508201.185 5 328405702.76405       157.880 5        35.000  
I03  36493237.342 8 143204185.81408         5.007 8        50.312    36493231.807 7 303343783.50907        10.536 7        44.531  
I04         0.000 7         0.00007         0.020 7        43.906           0.000 6         0.00006         0.041 6        37.969  
I05         0.000 7         0.00007         0.020 7        47.969           0.000 7         0.00007         0.041 7        42.031  
I06  38392789.508 7 150658505.79607       -47.760 7        44.844    38392783.565 6 319133778.60406      -102.146 6        38.438  
I07         0.000 7         0.00007         0.020 7        43.281           0.000 6         0.00006         0.041 6        37.812  
I09  36167636.394 8 141926775.31108      -119.728 8        50.469    36167631.344 7 300637242.54307      -253.576 7        45.000  
I10  39455286.219 7 154827883.10007       -63.805 7        43.125    39455280.087 5 327965800.10305      -135.543 5        35.938  
> 2024 01 02  0  2 30.0000000  0  9      -217.172126037853
I01         0.000 8         0.00008        -0.081 8        50.625           0.000 4         0.00004        -0.172 4        24.531  
I02  39508767.209 6 155037727.04806        72.313 6        41.406    39508762.190 5 328410364.02405       153.338 5        35.156  
I03  36493276.030 8 143204337.82708         5.106 8        50.312    36493270.582 7 303344105.52307        10.777 7        44.531  
I04         0.000 7         0.00007        -0.081 7        44.062           0.000 6         0.00006        -0.172 6        38.125  
I05         0.000 8         0.00008        -0.081 8        48.281           0.000 7         0.00007        -0.172 7        42.188  
I06  38392421.595 7 150657060.94407       -48.194 7        44.688    38392414.835 6 319130718.02306      -102.228 6        38.281  
I07         0.000 7         0.00007        -0.081 7        43.281           0.000 6         0.00006        -0.172 6        37.812  
I09  36166720.976 8 141923183.13308      -119.802 8        50.469    36166716.091 7 300629633.35607      -253.756 7        44.688  
I10  39454796.976 7 154825963.57307       -64.213 7        43.125    39454790.887 5 327961734.09605      -136.172 5        35.781  
> 2024 01 02  0  3  0.0000000  0  9      -216.881029376987
I01         0.000 8         0.00008        -0.019 8        50.625           0.000 3         0.00003        -0.041 3        20.781  
I02  39509313.695 6 155039871.02906        70.650 6        41.250    39509308.367 5 328414905.53005       149.808 5        35.156  
I03  36493315.892 8 143204494.48708         5.359 8        50.312    36493310.524 7 303344437.37207        11.325 7        44.531  
I04         0.000 7         0.00007        -0.019 7        44.062           0.000 6         0.00006        -0.041 6        37.812  
I05         0.000 8         0.00008        -0.019 8        48.281           0.000 7         0.00007        -0.041 7        42.500  
I06  38392053.207 7 150655615.03907       -48.148 7        44.688    38392046.745 6 319127655.20706      -101.959 6        38.281  
I07         0.000 7         0.00007        -0.019 7        43.281           0.000 6         0.00006        -0.041 6        37.812  
I09  36165805.696 8 141919591.51108      -119.694 8        50.469    36165800.755 7 300622025.36307      -253.649 7        44.688  
I10  39454307.115 7 154824041.25007       -64.184 7        42.969    39454301.445 5 327957662.11505      -135.901 5        35.625  
> 2024 01 02  0  3 30.0000000  0  9      -217.178548654574
I01         0.000 8         0.00008        -0.143 8        50.625           0.000 4         0.00004        -0.302 4        24.219  
I02  39509845.653 6 155041959.12806        68.275 6        41.406    39509840.505 5 328419328.65605       144.767 5        35.312  
I03  36493357.059 8 143204655.76708         5.262 8        50.156    36493351.697 7 303344778.99507        11.314 7        44.531  
I04         0.000 7         0.00007        -0.143 7        44.219           0.000 6         0.00006        -0.302 6        37.188  
I05         0.000 8         0.00008        -0.143 8        48.125           0.000 7         0.00007        -0.302 7        42.500  
I06  38391684.298 7 150654168.06907       -48.364 7        44.688    38391677.708 6 319124590.15106      -102.575 6        38.438  
I07         0.000 7         0.00007        -0.143 7        43.281           0.000 6         0.00006        -0.302 6        37.812  
I09  36164890.603 8 141916000.45408      -119.851 8        50.469    36164885.420 7 300614418.56107      -253.765 7        44.531  
I10  39453816.444 7 154822116.11307       -64.417 7        42.969    39453811.066 5 327953584.19405      -135.979 5        35.625  
> 2024 01 02  0  4  0.0000000  0  9      -217.429908455874
I01         0.000 8         0.00008        -0.100 8        50.625           0.000 4         0.00004        -0.211 4        24.219  
I02  39510363.145 6 155043990.36406        66.418 6        41.250    39510358.018 5 328423631.35205       141.042 5        35.000  
I03  36493399.256 8 143204821.67408         5.504 8        50.312    36493394.098 7 303345130.43407        11.620 7        44.688  
I04         0.000 7         0.00007        -0.100 7        44.062           0.000 6         0.00006        -0.211 6        37.031  
I05         0.000 7         0.00007        -0.100 7        47.969           0.000 7         0.00007        -0.211 7        42.500  
I06  38391315.217 7 150652720.06307       -48.340 7        44.688    38391309.079 6 319121522.88806      -102.441 6        38.438  
I07         0.000 7         0.00007        -0.100 7        43.438           0.000 6         0.00006        -0.211 6        37.812  
I09  36163975.605 8 141912409.90708      -119.717 8        50.469    36163970.303 7 300606812.85307      -253.800 7        44.531  
I10  39453325.245 7 154820188.19007       -64.380 7        42.812    39453319.391 5 327949500.36305      -136.758 5        35.469  
> 2024 01 02  0  4 30.0000000  0  9      -217.116645223293
I01         0.000 8         0.00008        -0.058 8        50.625           0.000 3         0.00003        -0.123 3        23.906  
I02  39510866.346 6 155045963.99006        64.901 6        41.094    39510861.677 5 328427812.02605       137.782 5        35.312  
I03  36493442.632 8 143204992.23708         5.706 8        50.156    36493437.401 7 303345491.71807        12.208 7        44.688  
I04         0.000 7         0.00007        -0.058 7        43.906           0.000 6         0.00006        -0.123 6        37.188  
I05         0.000 8         0.00008        -0.058 8        48.125           0.000 7         0.00007        -0.123 7        42.656  
I06  38390946.039 7 150651271.04707       -48.238 7        44.688    38390939.693 6 319118453.48406      -102.645 6        38.281  
I07         0.000 7         0.00007        -0.058 7        43.594           0.000 6         0.00006        -0.123 6        37.812  
I09  36163060.808 8 141908819.89608      -119.703 8        50.469    36163055.459 7 300599208.27007      -253.475 7        44.531  
I10  39452833.334 7 154818257.48007       -64.612 7        42.812    39452826.927 5 327945410.64905      -136.526 5        35.781  
> 2024 01 02  0  5  0.0000000  0  9      -216.924268619431
I01         0.000 8         0.00008        -0.085 8        50.625           0.000 4         0.00004        -0.180 4        25.938  
I02  39511354.571 6 155047880.61206        63.048 6        41.406    39511350.028 5 328431871.95905       133.409 5        35.156  
I03  36493487.352 8 143205167.40808         5.732 8        50.156    36493482.063 7 303345862.78407        12.329 7        44.688  
I04         0.000 7         0.00007        -0.085 7        43.750           0.000 6         0.00006        -0.180 6        37.188  
I05         0.000 8         0.00008        -0.085 8        48.125           0.000 7         0.00007        -0.180 7        42.656  
I06  38390576.525 7 150649820.99707       -48.368 7        44.688    38390570.008 6 319115381.91806      -102.570 6        38.438  
I07         0.000 7         0.00007        -0.085 7        43.281           0.000 6         0.00006        -0.180 6        37.812  
I09  36162146.070 8 141905230.37308      -119.754 8        50.625    36162140.758 7 300591604.69807      -253.539 7        44.531  
I10  39452340.676 7 154816323.98407       -64.719 7        42.656    39452334.718 5 327941315.01605      -137.145 5        35.625  
> 2024 01 02  0  5 30.0000000  0  9      -216.877792473076
I01         0.000 8         0.00008        -0.120 8        50.625           0.000 3         0.00003        -0.253 3        22.188  
I02  39511828.941 6 155049740.70006        60.629 6        41.406    39511823.857 5 328435812.13005       129.619 5        35.312  
I03  36493533.045 8 143205347.19908         6.033 8        50.156    36493527.942 7 303346243.63407        12.664 7        44.531  
I04         0.000 7         0.00007        -0.120 7        43.750           0.000 6         0.00006        -0.253 6        37.031  
I05         0.000 8         0.00008        -0.120 8        48.125           0.000 7         0.00007        -0.253 7        42.656  
I06  38390206.580 7 150648369.93807       -48.442 7        44.688    38390200.238 6 319112308.17606      -102.762 6        38.438  
I07         0.000 7         0.00007        -0.120 7        43.438           0.000 6         0.00006        -0.253 6        37.969  
I09  36161231.579 8 141901641.36608      -119.755 8        50.625    36161226.120 7 300584002.23807      -253.692 7        44.688  
I10  39451847.029 7 154814387.72907       -64.719 7        42.656    39451841.078 5 327937213.56305      -136.861 5        35.938  
> 2024 01 02  0  6  0.0000000  0  9      -216.637366537178
I01         0.000 8         0.00008        -0.073 8        50.625           0.000 3         0.00003        -0.155 3        22.656  
I02  39512288.367 6 155051544.97706        59.188 6        41.250    39512283.834 5 328439634.03705       125.658 5        35.469  
I03  36493580.203 8 143205531.62408         6.048 8        50.156    36493574.871 7 303346634.30207        13.049 7        44.531  
I04         0.000 7         0.00007        -0.073 7        43.750           0.000 6         0.00006        -0.155 6        37.188  
I05         0.000 8         0.00008        -0.073 8        48.125           0.000 7         0.00007        -0.155 7        42.500  
I06  38389836.598 7 150646917.83307       -48.503 7        44.531    38389829.750 6 319109232.24906      -102.256 6        38.594  
I07         0.000 7         0.00007        -0.073 7        43.281           0.000 6         0.00006        -0.155 6        37.812  
I09  36160317.237 8 141898052.81208      -119.744 8        50.781    36160311.880 7 300576400.74207      -253.483 7        44.688  
I10  39451352.918 7 154812448.72907       -64.627 7        42.812    39451346.880 5 327933106.26905      -137.322 5        35.625  
> 2024 01 02  0  6 30.0000000  0  9      -216.985000187553
I01         0.000 8         0.00008        -0.051 8        50.781           0.000 4         0.00004        -0.109 4        24.375  
I02  39512733.275 6 155053292.32906        57.429 6        41.250    39512729.242 5 328443335.38005       121.271 5        35.312  
I03  36493628.308 8 143205720.68408         6.285 8        50.156    36493623.209 7 303347034.78807        13.394 7        44.531  
I04         0.000 7         0.00007        -0.051 7        43.750           0.000 6         0.00006        -0.109 6        37.500  
I05         0.000 8         0.00008        -0.051 8        48.125           0.000 7         0.00007        -0.109 7        42.344  
I06  38389466.375 7 150645464.71707       -48.464 7        44.688    38389459.424 6 319106154.17606      -102.636 6        38.594  
I07         0.000 7         0.00007        -0.051 7        43.281           0.000 6         0.00006        -0.109 6        37.812  
I09  36159402.998 8 141894464.71608      -119.604 8        50.781    36159397.672 7 300568800.21307      -253.413 7        44.688  
I10  39450857.960 7 154810506.95607       -64.912 7        42.656    39450852.134 5 327928993.14205      -137.197 5        35.781  
> 2024 01 02  0  7  0.0000000  0  9      -216.647173870311
I01         0.000 8         0.00008         0.004 8        50.781           0.000 4         0.00004         0.008 4        24.688  
I02  39513164.442 6 155054983.06406        55.589 6        41.406    39513160.650 5 328446916.80605       117.368 5        35.625  
I03  36493677.557 8 143205914.31808         6.645 8        50.156    36493672.478 7 303347444.97507        13.599 7        44.531  
I04         0.000 7         0.00007         0.004 7        43.906           0.000 6         0.00006         0.008 6        37.500  
I05         0.000 8         0.00008         0.004 8        48.438           0.000 7         0.00007         0.008 7        42.344  
I06  38389095.873 7 150644010.62307       -48.500 7        44.688    38389089.060 6 319103074.04106      -102.774 6        38.125  
I07         0.000 7         0.00007         0.004 7        43.281           0.000 6         0.00006         0.008 6        37.812  
I09  36158488.875 8 141890877.03808      -119.591 8        50.938    36158483.667 7 300561200.56607      -253.321 7        44.844  
I10  39450362.448 7 154808562.47607       -64.705 7        42.969    39450356.780 5 327924874.25605      -137.506 5        35.938  
> 2024 01 02  0  7 30.0000000  0  9      -216.048510061689
I01         0.000 8         0.00008         0.003 8        50.781           0.000 3         0.00003         0.006 3        22.031  
I02  39513581.117 6 155056617.17406        53.684 6        41.406    39513576.388 5 328450378.26305       113.017 5        35.625  
I03  36493728.218 8 143206112.56808         6.715 8        50.156    36493722.984 7 303347864.92107        14.273 7        44.531  
I04         0.000 7         0.00007         0.003 7        43.750           0.000 6         0.00006         0.006 6        37.500  
I05         0.000 8         0.00008         0.003 8        48.594           0.000 7         0.00007         0.006 7        42.656  
I06  38388725.014 7 150642555.51907       -48.435 7        44.688    38388718.465 6 319099991.74906      -102.958 6        38.438  
I07         0.000 7         0.00007         0.003 7        43.281           0.000 6         0.00006         0.006 6        37.969  
I09  36157574.767 8 141887289.79608      -119.547 8        50.938    36157569.390 7 300553601.83807      -253.241 7        44.844  
I10  39449866.362 7 154806615.26307       -64.835 7        42.656    39449860.433 5 327920749.56505      -137.391 5        35.781  
> 2024 01 02  0  8  0.0000000  0  9      -216.776563907993
I01         0.000 8         0.00008        -0.080 8        50.625           0.000 4         0.00004        -0.170 4        25.312  
I02  39513983.039 6 155058195.26206        51.307 6        41.406    39513978.521 5 328453721.08505       109.270 5        35.312  
I03  36493779.777 8 143206315.42408         6.940 8        50.156    36493774.608 7 303348294.64907        14.278 7        44.375  
I04         0.000 7         0.00007        -0.080 7        43.594           0.000 6         0.00006        -0.170 6        37.031  
I05         0.000 8         0.00008        -0.080 8        48.438           0.000 7         0.00007        -0.170 7        42.500  
I06  38388354.012 7 150641099.41807       -48.569 7        44.688    38388347.437 6 319096907.36606      -103.234 6        38.125  
I07         0.000 7         0.00007        -0.080 7        43.438           0.000 6         0.00006        -0.170 6        37.500  
I09  36156660.784 8 141883702.95108      -119.708 8        50.938    36156655.333 7 300546003.95707      -253.433 7        44.531  
I10  39449369.452 7 154804665.35007       -65.066 7        42.500    39449363.364 5 327916619.17305      -138.125 5        35.781  
> 2024 01 02  0  8 30.0000000  0  9      -216.305985939506
I01         0.000 8         0.00008        -0.049 8        50.625           0.000 3         0.00003        -0.104 3        21.094  
I02  39514370.397 6 155059715.43906        49.772 6        41.562    39514366.245 5 328456941.22905       105.027 5        35.781  
I03  36493832.824 8 143206522.91608         6.873 8        50.156    36493827.437 7 303348734.18607        14.754 7        44.531  
I04         0.000 7         0.00007        -0.049 7        43.281           0.000 6         0.00006        -0.104 6        37.656  
I05         0.000 8         0.00008        -0.049 8        48.438           0.000 7         0.00007        -0.104 7        42.344  
I06  38387982.911 7 150639642.38207       -48.727 7        44.844    38387976.053 6 319093820.98406      -102.938 6        37.969  
I07         0.000 7         0.00007        -0.049 7        43.438           0.000 6         0.00006        -0.104 6        37.969  
I09  36155746.959 8 141880116.51508      -119.544 8        50.781    36155741.557 7 300538406.94207      -253.295 7        45.156  
I10  39448871.778 7 154802712.73307       -65.005 7        42.500    39448865.741 5 327912483.05005      -138.310 5        35.781  
> 2024 01 02  0  9  0.0000000  0  9      -216.483658156908
I01         0.000 8         0.00008        -0.125 8        50.781           0.000 4         0.00004        -0.266 4        26.406  
I02  39514743.534 6 155061178.08606        47.873 6        41.406    39514738.760 5 328460039.50705       101.237 5        35.938  
I03  36493886.924 8 143206735.01908         7.085 8        50.156    36493881.839 7 303349183.48207        14.872 7        44.688  
I04         0.000 7         0.00007        -0.125 7        43.438           0.000 6         0.00006        -0.266 6        37.812  
I05         0.000 8         0.00008        -0.125 8        48.281           0.000 7         0.00007        -0.266 7        42.500  
I06  38387611.053 7 150638184.33707       -48.865 7        44.688    38387604.462 6 319090732.49006      -103.181 6        38.125  
I07         0.000 7         0.00007        -0.125 7        43.438           0.000 6         0.00006        -0.266 6        37.969  
I09  36154833.209 8 141876530.45608      -119.707 8        50.938    36154827.778 7 300530810.73307      -253.425 7        45.000  
I10  39448373.638 7 154800757.42607       -65.625 7        42.500    39448367.402 5 327908341.24105      -138.577 5        35.781  
> 2024 01 02  0  9 30.0000000  0  9      -216.123962299604
I01         0.000 8         0.00008         0.000 8        50.781           0.000 4         0.00004         0.000 4        24.375  
I02  39515101.903 6 155062585.12106        46.079 6        41.406    39515097.501 6 328463019.97206        96.977 6        36.562  
I03  36493942.114 8 143206951.70408         7.315 8        50.156    36493936.835 7 303349642.50307        15.623 7        44.688  
I04         0.000 7         0.00007         0.000 7        43.438           0.000 6         0.00006         0.000 6        38.125  
I05         0.000 8         0.00008         0.000 8        48.281           0.000 7         0.00007         0.000 7        42.500  
I06  38387239.640 7 150636725.32507       -48.671 7        44.688    38387233.240 6 319087641.92306      -102.961 6        38.438  
I07         0.000 7         0.00007         0.000 7        43.438           0.000 6         0.00006         0.000 6        37.969  
I09  36153919.446 8 141872944.77408      -119.600 8        51.094    36153914.025 7 300523215.33607      -253.252 7        45.000  
I10  39447874.477 7 154798799.44307       -64.952 7        42.344    39447868.536 5 327904193.74305      -138.118 5        35.938  
> 2024 01 02  0 10  0.0000000  0  9      -215.715735320441
I01         0.000 8         0.00008        -0.122 8        50.781           0.000 4         0.00004        -0.259 4        24.219  
I02  39515446.182 6 155063935.76906        43.992 6        41.719    39515441.381 6 328465881.01706        92.703 6        36.562  
I03  36493998.551 8 143207173.00708         7.476 8        50.156    36493993.298 7 303350111.30907        15.430 7        44.688  
I04         0.000 7         0.00007        -0.122 7        43.281           0.000 6         0.00006        -0.259 6        37.969  
I05         0.000 8         0.00008        -0.122 8        48.438           0.000 7         0.00007        -0.259 7        42.500  
I06  38386867.344 7 150635265.35207       -48.813 7        44.531    38386860.526 6 319084549.31906      -103.167 6        38.438  
I07         0.000 7         0.00007        -0.122 7        43.438           0.000 6         0.00006        -0.259 6        37.969  
I09  36153005.863 8 141869359.44608      -119.766 8        51.094    36153000.461 7 300515620.66907      -253.255 7        45.156  
I10  39447374.981 7 154796838.78807       -65.789 7        42.188    39447369.068 5 327900040.59305      -138.416 5        35.625  
> 2024 01 02  0 10 30.0000000  0  9      -216.009151998375
I01         0.000 8         0.00008         0.023 8        50.781           0.000 3         0.00003         0.049 3        23.438  
I02  39515775.577 6 155065229.23006        42.457 6        41.406    39515771.507 6 328468620.91406        89.763 6        36.250  
I03  36494056.038 8 143207398.89808         7.589 8        50.156    36494050.810 7 303350589.80107        16.097 7        44.688  
I04         0.000 7         0.00007         0.023 7        43.125           0.000 6         0.00006         0.049 6        38.281  
I05         0.000 8         0.00008         0.023 8        48.438           0.000 7         0.00007         0.049 7        42.500  
I06  38386494.778 7 150633804.40007       -48.566 7        44.688    38386488.381 6 319081454.65006      -102.980 6        38.281  
I07         0.000 7         0.00007         0.023 7        43.438           0.000 6         0.00006         0.049 6        37.812  
I09  36152092.394 8 141865774.44808      -119.435 8        51.094    36152086.946 7 300508026.72807      -253.130 7        45.000  
I10  39446874.638 7 154794875.48607       -65.335 7        42.344    39446868.266 5 327895881.84505      -138.422 5        35.781  
> 2024 01 02  0 11  0.0000000  0  9      -215.709416557187
I01         0.000 8         0.00008         0.034 8        50.938           0.000 4         0.00004         0.073 4        24.844  
I02  39516090.935 6 155066466.05206        40.983 6        41.406    39516086.810 6 328471240.83806        85.324 6        36.562  
I03  36494114.877 8 143207629.40708         7.733 8        50.156    36494109.504 7 303351078.10707        16.525 7        44.688  
I04         0.000 7         0.00007         0.034 7        43.125           0.000 6         0.00006         0.073 6        37.656  
I05         0.000 8         0.00008         0.034 8        48.281           0.000 7         0.00007         0.073 7        42.344  
I06  38386122.666 7 150632342.50007       -48.772 7        44.688    38386115.662 6 319078357.95106      -103.575 6        38.125  
I07         0.000 7         0.00007         0.034 7        43.438           0.000 6         0.00006         0.073 6        37.812  
I09  36151178.915 8 141862189.80308      -119.408 8        51.250    36151173.473 7 300500433.52407      -253.042 7        45.000  
I10  39446373.614 7 154792909.53207       -65.558 7        42.188    39446367.167 5 327891717.49105      -138.325 5        35.312  
> 2024 01 02  0 11 30.0000000  0  9      -215.698212461028
I01         0.000 8         0.00008        -0.107 8        50.938           0.000 4         0.00004        -0.228 4        24.844  
I02  39516391.817 6 155067646.37206        38.176 6        41.250    39516387.584 6 328473741.06006        80.837 6        36.562  
I03  36494174.722 8 143207864.48708         7.793 8        50.156    36494169.226 7 303351576.07907        16.468 7        44.688  
I04         0.000 7         0.00007        -0.107 7        43.281           0.000 6         0.00006        -0.228 6        37.344  
I05         0.000 8         0.00008        -0.107 8        48.281           0.000 7         0.00007        -0.228 7        42.031  
I06  38385749.858 7 150630879.64207       -48.938 7        44.688    38385743.241 6 319075259.24506      -103.517 6        38.125  
I07         0.000 7         0.00007        -0.107 7        43.281           0.000 6         0.00006        -0.228 6        38.125  
I09  36150265.593 8 141858605.47108      -119.583 8        51.250    36150260.057 7 300492840.97307      -253.260 7        45.156  
I10  39445872.050 7 154790940.95407       -65.733 7        42.344    39445865.646 5 327887547.58605      -139.184 5        35.312  
> 2024 01 02  0 12  0.0000000  0  9      -216.022791501583
I01         0.000 8         0.00008        -0.090 8        50.938           0.000 4         0.00004        -0.191 4        24.219  
I02  39516677.776 6 155068769.23706        36.492 6        41.406    39516673.564 6 328476119.58006        77.055 6        36.406  
I03  36494235.861 8 143208104.17608         7.996 8        50.156    36494230.667 7 303352083.80707        16.861 7        44.688  
I04         0.000 7         0.00007        -0.090 7        43.594           0.000 6         0.00006        -0.191 6        37.344  
I05         0.000 8         0.00008        -0.090 8        48.438           0.000 7         0.00007        -0.191 7        42.344  
I06  38385376.758 7 150629415.84607       -48.971 7        44.688    38385370.031 6 319072158.55706      -103.876 6        38.281  
I07         0.000 7         0.00007        -0.090 7        43.281           0.000 6         0.00006        -0.191 6        37.969  
I09  36149352.286 8 141855021.48508      -119.492 8        51.250    36149346.884 7 300485249.14807      -253.283 7        45.156  
I10  39445369.714 7 154788969.75907       -65.979 7        42.344    39445363.603 5 327883372.09705      -139.267 5        35.156  
> 2024 01 02  0 12 30.0000000  0  9      -215.305789356143
I01         0.000 8         0.00008        -0.088 8        50.938           0.000 4         0.00004        -0.187 4        25.625  
I02  39516949.717 6 155069836.02306        34.366 6        41.406    39516945.452 6 328478379.33106        73.243 6        36.406  
I03  36494298.019 8 143208348.46108         8.182 8        50.156    36494292.856 7 303352601.28107        17.202 7        44.688  
I04         0.000 7         0.00007        -0.088 7        43.750           0.000 6         0.00006        -0.187 6        37.500  
I05         0.000 8         0.00008        -0.088 8        48.438           0.000 7         0.00007        -0.187 7        42.031  
I06  38385003.710 7 150627951.12507       -48.887 7        44.688    38384996.637 6 319069055.89406      -103.619 6        37.969  
I07         0.000 7         0.00007        -0.088 7        43.281           0.000 6         0.00006        -0.187 6        37.969  
I09  36148439.098 8 141851437.77508      -119.579 8        51.250    36148433.570 7 300477657.90407      -253.232 7        45.156  
I10  39444866.743 7 154786995.94507       -65.858 7        42.344    39444860.184 5 327879191.08705      -139.382 5        35.156  
> 2024 01 02  0 13  0.0000000  0  9      -215.377216901903
I01         0.000 8         0.00008         0.022 8        50.781           0.000 3         0.00003         0.048 3        22.344  
I02  39517207.215 6 155070846.25306        33.357 6        41.406    39517202.795 6 328480519.27606        69.823 6        36.094  
I03  36494361.442 8 143208597.31908         8.415 8        50.156    36494356.256 7 303353128.43307        17.799 7        44.688  
I04         0.000 7         0.00007         0.022 7        43.906           0.000 6         0.00006         0.048 6        37.344  
I05         0.000 8         0.00008         0.022 8        48.594           0.000 6         0.00006         0.048 6        41.875  
I06  38384630.279 7 150626485.46407       -48.922 7        44.688    38384623.099 6 319065951.24706      -103.603 6        37.969  
I07         0.000 7         0.00007         0.022 7        43.281           0.000 6         0.00006         0.048 6        38.125  
I09  36147525.996 8 141847854.36708      -119.353 8        51.250    36147520.490 7 300470067.30307      -252.871 7        45.156  
I10  39444363.264 7 154785019.52007       -66.008 7        42.500    39444356.942 5 327875004.56705      -139.723 5        34.844  
> 2024 01 02  0 13 30.0000000  0  9      -215.196749866120
I01         0.000 8         0.00008        -0.158 8        50.781           0.000 4         0.00004        -0.336 4        25.625  
I02  39517450.308 6 155071799.80706        30.566 6        41.406    39517445.945 6 328482539.14806        65.268 6        36.094  
I03  36494426.022 8 143208850.79708         8.246 8        50.156    36494420.762 7 303353665.37607        17.640 7        44.688  
I04         0.000 7         0.00007        -0.158 7        44.219           0.000 6         0.00006        -0.336 6        37.188  
I05         0.000 8         0.00008        -0.158 8        48.594           0.000 7         0.00007        -0.336 7        42.344  
I06  38384256.552 7 150625018.84007       -49.252 7        44.844    38384249.571 6 319062844.58206      -103.908 6        38.438  
I07         0.000 7         0.00007        -0.158 7        43.438           0.000 6         0.00006        -0.336 6        38.281  
I09  36146612.914 8 141844271.23508      -119.615 8        51.406    36146607.327 7 300462477.28407      -253.172 7        45.000  
I10  39443859.106 7 154783040.52907       -66.108 7        42.500    39443852.099 5 327870812.56405      -139.968 5        34.688  
> 2024 01 02  0 14  0.0000000  0  9      -215.282315877963
I01         0.000 8         0.00008         0.002 8        50.625           0.000 3         0.00003         0.004 3        20.625  
I02  39517678.512 6 155072696.45106        29.219 6        41.406    39517674.686 6 328484438.50206        61.819 6        36.094  
I03  36494491.899 8 143209108.82808         8.717 8        50.156    36494486.495 7 303354211.96707        18.333 7        44.219  
I04         0.000 7         0.00007         0.002 7        44.062           0.000 6         0.00006         0.004 6        36.719  
I05         0.000 8         0.00008         0.002 8        48.750           0.000 6         0.00006         0.004 6        41.875  
I06  38383882.643 7 150623551.34407       -48.819 7        44.844    38383875.878 6 319059736.05006      -103.566 6        38.125  
I07         0.000 7         0.00007         0.002 7        43.281           0.000 6         0.00006         0.004 6        37.500  
I09  36145699.894 8 141840688.39208      -119.414 8        51.406    36145694.471 7 300454887.88607      -252.915 7        45.000  
I10  39443354.058 7 154781058.93607       -66.107 7        42.344    39443346.973 5 327866615.06105      -139.775 5        34.531  
> 2024 01 02  0 14 30.0000000  0  9      -215.793132641245
I01         0.000 8         0.00008        -0.065 8        50.781           0.000 4         0.00004        -0.137 4        24.375  
I02  39517892.542 6 155073536.22306        27.470 6        41.094    39517888.002 6 328486217.34706        57.493 6        36.094  
I03  36494558.800 8 143209371.45208         8.787 8        50.312    36494553.354 7 303354768.27307        18.470 7        44.531  
I04         0.000 7         0.00007        -0.065 7        44.062           0.000 6         0.00006        -0.137 6        37.031  
I05         0.000 8         0.00008        -0.065 8        48.750           0.000 7         0.00007        -0.137 7        42.031  
I06  38383508.359 7 150622082.93107       -49.200 7        44.688    38383501.762 6 319056625.58106      -104.134 6        38.438  
I07         0.000 7         0.00007        -0.065 7        43.281           0.000 6         0.00006        -0.137 6        37.812  
I09  36144786.941 8 141837105.79308      -119.523 8        51.250    36144781.353 7 300447299.00707      -253.123 7        45.156  
I10  39442848.577 7 154779074.79807       -66.442 7        42.656    39442841.343 5 327862412.17505      -140.693 5        34.844  
> 2024 01 02  0 15  0.0000000  0  9      -216.112857772348
I01         0.000 8         0.00008        -0.100 8        50.781           0.000 4         0.00004        -0.211 4        26.250  
I02  39518092.074 6 155074319.08106        24.950 6        41.406    39518087.146 6 328487875.66406        53.365 6        36.250  
I03  36494626.821 8 143209638.65608         8.948 8        50.156    36494621.722 7 303355334.29207        18.724 7        44.688  
I04         0.000 7         0.00007        -0.100 7        44.219           0.000 6         0.00006        -0.211 6        36.562  
I05         0.000 8         0.00008        -0.100 8        48.750           0.000 6         0.00006        -0.211 6        41.719  
I06  38383133.868 7 150620613.60607       -49.002 7        44.844    38383127.000 6 319053513.18106      -104.209 6        38.438  
I07         0.000 7         0.00007        -0.100 7        43.281           0.000 6         0.00006        -0.211 6        38.125  
I09  36143874.156 8 141833523.45508      -119.617 8        51.250    36143868.507 7 300439710.68307      -253.044 7        45.156  
I10  39442342.375 7 154777088.10107       -66.377 7        42.500    39442335.181 5 327858203.87305      -140.616 5        34.688  
> 2024 01 02  0 15 30.0000000  0  9      -215.492806402365
I01         0.000 8         0.00008        -0.019 8        50.781           0.000 4         0.00004        -0.039 4        25.781  
I02  39518277.805 6 155075045.87806        23.467 6        41.719    39518273.096 6 328489415.20406        49.729 6        36.094  
I03  36494696.034 8 143209910.42608         9.192 8        50.156    36494690.979 7 303355910.00007        19.289 7        44.688  
I04         0.000 7         0.00007        -0.019 7        44.219           0.000 6         0.00006        -0.039 6        36.875  
I05         0.000 8         0.00008        -0.019 8        48.750           0.000 6         0.00006        -0.039 6        41.719  
I06  38382759.336 7 150619143.40407       -48.966 7        44.844    38382752.486 6 319050398.91506      -103.750 6        38.750  
I07         0.000 7         0.00007        -0.019 7        43.125           0.000 6         0.00006        -0.039 6        38.438  
I09  36142961.208 8 141829941.38808      -119.407 8        51.250    36142955.586 7 300432122.92707      -252.970 7        45.156  
I10  39441835.416 7 154775098.86307       -66.412 7        42.500    39441828.596 5 327853990.18805      -140.368 5        35.000  
> 2024 01 02  0 16  0.0000000  0  9      -215.954026723133
I01         0.000 8         0.00008        -0.141 8        50.781           0.000 3         0.00003        -0.299 3        23.750  
I02  39518448.164 6 155075716.30806        21.186 6        41.406    39518444.018 6 328490835.37106        44.954 6        36.406  
I03  36494766.473 8 143210186.77708         9.150 8        50.156    36494761.160 7 303356495.38407        19.367 7        44.688  
I04         0.000 7         0.00007        -0.141 7        44.062           0.000 6         0.00006        -0.299 6        37.656  
I05         0.000 8         0.00008        -0.141 8        48.438           0.000 6         0.00006        -0.299 6        41.562  
I06  38382384.515 7 150617672.30707       -49.089 7        44.844    38382377.672 6 319047282.76306      -104.041 6        38.906  
I07         0.000 7         0.00007        -0.141 7        43.281           0.000 6         0.00006        -0.299 6        37.969  
I09  36142048.459 8 141826359.51608      -119.671 8        51.250    36142043.022 7 300424535.59307      -253.141 7        45.156  
I10  39441328.068 7 154773107.09407       -66.764 7        42.812    39441320.901 5 327849771.14405      -140.722 5        35.312  
> 2024 01 02  0 16 30.0000000  0  9      -215.676949122212
I01         0.000 8         0.00008        -0.105 8        50.781           0.000 4         0.00004        -0.223 4        24.844  
I02  39518604.389 6 155076329.80906        19.270 6        41.875    39518600.235 5 328492134.92105        41.228 5        35.781  
I03  36494838.192 8 143210467.70308         9.362 8        50.156    36494832.986 7 303357090.47107        19.786 7        44.531  
I04         0.000 7         0.00007        -0.105 7        44.062           0.000 6         0.00006        -0.223 6        37.656  
I05         0.000 8         0.00008        -0.105 8        48.594           0.000 6         0.00006        -0.223 6        41.562  
I06  38382009.401 7 150616200.30507       -49.052 7        44.688    38382002.737 6 319044164.68406      -103.951 6        38.750  
I07         0.000 7         0.00007        -0.105 7        43.125           0.000 6         0.00006        -0.223 6        37.969  
I09  36141135.788 8 141822777.90108      -119.586 8        51.250    36141130.304 7 300416948.79407      -253.072 7        45.156  
I10  39440820.219 7 154771112.80007       -66.663 7        42.812    39440812.509 5 327845546.76605      -140.894 5        35.312  
> 2024 01 02  0 17  0.0000000  0  9      -215.574380403040
I01         0.000 8         0.00008        -0.145 8        50.781           0.000 4         0.00004        -0.307 4        24.375  
I02  39518746.700 6 155076887.60006        17.482 6        41.875    39518742.299 5 328493316.51405        37.296 5        35.938  
I03  36494910.918 8 143210753.18508         9.443 8        50.156    36494905.593 7 303357695.21207        19.950 7        44.688  
I04         0.000 7         0.00007        -0.145 7        44.375           0.000 6         0.00006        -0.307 6        37.500  
I05         0.000 8         0.00008        -0.145 8        48.125           0.000 6         0.00006        -0.307 6        41.562  
I06  38381633.915 7 150614727.41707       -49.486 7        44.688    38381627.502 6 319041044.73206      -104.247 6        38.750  
I07         0.000 7         0.00007        -0.145 7        43.281           0.000 6         0.00006        -0.307 6        38.125  
I09  36140223.130 8 141819196.50408      -119.448 8        51.250    36140217.895 7 300409362.45407      -253.198 7        45.312  
I10  39440311.052 7 154769115.99007       -66.896 7        42.812    39440303.844 5 327841317.04505      -141.376 5        35.156  
> 2024 01 02  0 17 30.0000000  0  9      -215.761841413639
I01         0.000 8         0.00008        -0.028 8        50.781           0.000 4         0.00004        -0.060 4        24.844  
I02  39518874.271 6 155077387.86106        15.854 6        41.562    39518870.126 6 328494376.23106        33.242 6        36.094  
I03  36494984.830 8 143211043.25708         9.777 8        50.156    36494979.544 7 303358309.67207        20.678 7        44.688  
I04         0.000 7         0.00007        -0.028 7        44.531           0.000 6         0.00006        -0.060 6        37.969  
I05         0.000 7         0.00007        -0.028 7        47.969           0.000 6         0.00006        -0.060 6        41.562  
I06  38381258.502 7 150613253.66507       -49.114 7        44.688    38381251.699 6 319037922.96306      -104.009 6        38.594  
I07         0.000 7         0.00007        -0.028 7        43.281           0.000 6         0.00006        -0.060 6        38.125  
I09  36139310.566 8 141815615.33208      -119.410 8        51.250    36139305.050 7 300401776.60307      -252.902 7        45.156  
I10  39439801.265 7 154767116.68307       -66.681 7        42.500    39439794.635 5 327837082.05605      -141.439 5        35.469  
> 2024 01 02  0 18  0.0000000  0  9      -215.811347363370
I01         0.000 8         0.00008        -0.133 8        50.781           0.000 4         0.00004        -0.281 4        24.219  
I02  39518987.420 6 155077832.70506        13.643 6        41.406    39518983.344 6 328495318.54306        28.922 6        36.562  
I03  36495059.686 8 143211337.86508         9.781 8        50.156    36495054.682 7 303358933.74807        20.634 7        44.844  
I04         0.000 7         0.00007        -0.133 7        44.688           0.000 6         0.00006        -0.281 6        37.812  
I05         0.000 8         0.00008        -0.133 8        48.125           0.000 6         0.00006        -0.281 6        41.406  
I06  38380882.759 7 150611779.05507       -49.505 7        44.531    38380876.060 6 319034799.33606      -104.488 6        38.750  
I07         0.000 7         0.00007        -0.133 7        43.438           0.000 6         0.00006        -0.281 6        38.281  
I09  36138398.050 8 141812034.35808      -119.504 8        51.250    36138392.138 7 300394191.16607      -253.136 7        45.000  
I10  39439291.427 7 154765114.88407       -66.868 7        42.656    39439283.908 5 327832841.78105      -142.234 5        35.312  
> 2024 01 02  0 18 30.0000000  0  9      -215.772749318160
I01         0.000 8         0.00008        -0.026 8        50.781           0.000 3         0.00003        -0.056 3        23.125  
I02  39519086.333 6 155078220.38506        11.947 6        41.406    39519082.195 6 328496139.75706        25.757 6        36.094  
I03  36495136.113 8 143211637.06008        10.079 8        50.156    36495130.750 7 303359567.51707        21.034 7        44.844  
I04         0.000 7         0.00007        -0.026 7        44.219           0.000 6         0.00006        -0.056 6        37.969  
I05         0.000 8         0.00008        -0.026 8        48.125           0.000 6         0.00006        -0.056 6        41.719  
I06  38380506.625 7 150610303.54407       -49.139 7        44.688    38380500.231 6 319031673.85806      -104.294 6        38.906  
I07         0.000 7         0.00007        -0.026 7        43.281           0.000 6         0.00006        -0.056 6        38.438  
I09  36137485.704 8 141808453.57808      -119.401 8        51.250    36137479.856 7 300386606.13707      -252.950 7        44.844  
I10  39438780.642 7 154763110.60807       -66.710 7        42.656    39438773.953 5 327828596.25605      -141.282 5        35.469  
> 2024 01 02  0 19  0.0000000  0  9      -215.354865323492
I01         0.000 8         0.00008        -0.068 8        50.781           0.000 3         0.00003        -0.145 3        23.750  
I02  39519170.981 6 155078551.25206         9.926 6        41.719    39519166.704 6 328496840.64506        20.814 6        36.406  
I03  36495213.582 8 143211940.84208        10.161 8        50.156    36495208.280 7 303360211.01907        21.522 7        44.688  
I04         0.000 7         0.00007        -0.068 7        43.906           0.000 6         0.00006        -0.145 6        38.281  
I05         0.000 8         0.00008        -0.068 8        48.125           0.000 7         0.00007        -0.145 7        42.031  
I06  38380130.731 7 150608827.17807       -49.170 7        44.688    38380124.250 6 319028546.52906      -104.396 6        38.594  
I07         0.000 7         0.00007        -0.068 7        43.281           0.000 6         0.00006        -0.145 6        38.125  
I09  36136573.191 8 141804873.01308      -119.449 8        51.250    36136567.322 7 300379021.57207      -253.083 7        44.844  
I10  39438269.343 7 154761103.86207       -66.947 7        42.656    39438262.616 5 327824345.50605      -142.435 5        35.469  
> 2024 01 02  0 19 30.0000000  0  9      -216.022673869911
I01         0.000 8         0.00008        -0.097 8        50.781           0.000 3         0.00003        -0.206 3        20.469  
I02  39519240.627 6 155078825.72406         8.111 6        41.875    39519236.877 6 328497422.06406        17.075 6        36.719  
I03  36495292.116 8 143212249.16108        10.314 8        50.156    36495286.828 7 303360864.12807        21.716 7        44.688  
I04         0.000 7         0.00007        -0.097 7        43.906           0.000 6         0.00006        -0.206 6        38.438  
I05         0.000 8         0.00008        -0.097 8        48.281           0.000 7         0.00007        -0.206 7        42.188  
I06  38379753.871 7 150607349.95607       -49.357 7        44.688    38379747.405 6 319025417.41206      -104.782 6        38.750  
I07         0.000 7         0.00007        -0.097 7        43.125           0.000 6         0.00006        -0.206 6        37.969  
I09  36135660.813 8 141801292.64808      -119.491 8        51.406    36135654.635 7 300371437.44207      -252.952 7        44.844  
I10  39437757.359 7 154759094.67007       -67.174 7        42.969    39437750.223 5 327820089.57405      -142.312 5        35.625  
> 2024 01 02  0 20  0.0000000  0  9      -215.570683465151
I01         0.000 8         0.00008        -0.102 8        50.781           0.000 4         0.00004        -0.216 4        25.000  
I02  39519296.504 6 155079044.28606         6.430 6        41.875    39519291.837 6 328497885.05206        13.681 6        36.562  
I03  36495371.855 8 143212562.01508        10.440 8        50.156    36495366.459 7 303361526.84207        21.977 7        44.688  
I04         0.000 7         0.00007        -0.102 7        43.906           0.000 6         0.00006        -0.216 6        38.438  
I05         0.000 8         0.00008        -0.102 8        48.281           0.000 6         0.00006        -0.216 6        41.875  
I06  38379377.242 7 150605871.91207       -49.582 7        44.688    38379370.533 6 319022286.53206      -104.655 6        38.438  
I07         0.000 7         0.00007        -0.102 7        43.125           0.000 6         0.00006        -0.216 6        38.281  
I09  36134748.510 8 141797712.46008      -119.430 8        51.406    36134742.582 7 300363853.68807      -253.061 7        44.844  
I10  39437244.856 7 154757083.02807       -67.337 7        42.969    39437238.212 5 327815828.44705      -142.470 5        35.781  
> 2024 01 02  0 20 30.0000000  0  9      -215.770758650884
I01         0.000 8         0.00008        -0.073 8        50.781           0.000 4         0.00004        -0.155 4        24.688  
I02  39519337.741 6 155079206.42006         4.433 6        41.875    39519333.494 6 328498228.50806         9.648 6        37.031  
I03  36495452.764 8 143212879.39608        10.637 8        50.156    36495447.382 7 303362199.15007        22.519 7        44.844  
I04         0.000 7         0.00007        -0.073 7        43.750           0.000 6         0.00006        -0.155 6        38.438  
I05         0.000 8         0.00008        -0.073 8        48.281           0.000 7         0.00007        -0.155 7        42.031  
I06  38379000.515 7 150604393.01107       -49.288 7        44.531    38378993.642 6 319019153.84906      -104.655 6        38.594  
I07         0.000 7         0.00007        -0.073 7        43.125           0.000 6         0.00006        -0.155 6        38.438  
I09  36133836.131 8 141794132.47508      -119.519 8        51.406    36133830.231 7 300356270.35607      -252.960 7        45.156  
I10  39436731.475 7 154755068.96007       -67.284 7        42.656    39436724.575 5 327811562.19805      -142.400 5        35.781  
> 2024 01 02  0 21  0.0000000  0  9      -215.826470394519
I01         0.000 8         0.00008        -0.060 8        50.781           0.000 4         0.00004        -0.127 4        25.156  
I02  39519364.339 6 155079311.64106         2.519 6        41.875    39519360.602 6 328498451.43906         5.360 6        36.875  
I03  36495534.744 8 143213201.35608        10.773 8        50.156    36495529.575 7 303362881.14907        22.762 7        44.844  
I04         0.000 7         0.00007        -0.060 7        43.906           0.000 6         0.00006        -0.127 6        37.812  
I05         0.000 8         0.00008        -0.060 8        48.281           0.000 7         0.00007        -0.127 7        42.031  
I06  38378623.233 7 150602913.26707       -49.436 7        44.531    38378616.530 6 319016019.36506      -104.521 6        38.438  
I07         0.000 7         0.00007        -0.060 7        43.125           0.000 6         0.00006        -0.127 6        38.438  
I09  36132923.916 8 141790552.68308      -119.297 8        51.406    36132918.126 7 300348687.42207      -252.918 7        45.000  
I10  39436217.298 7 154753052.46207       -67.276 7        42.812    39436211.533 5 327807290.80605      -142.470 5        35.469  
> 2024 01 02  0 21 30.0000000  0  9      -215.269059420777
I01         0.000 8         0.00008        -0.103 8        50.781           0.000 3         0.00003        -0.217 3        23.594  
I02  39519377.192 6 155079361.40206         0.538 6        41.719    39519373.422 6 328498556.86506         1.384 6        36.562  
I03  36495617.878 8 143213527.85508        10.889 8        50.312    36495612.854 7 303363572.77507        23.171 7        44.688  
I04         0.000 7         0.00007        -0.103 7        43.750           0.000 6         0.00006        -0.217 6        37.656  
I05         0.000 8         0.00008        -0.103 8        48.438           0.000 7         0.00007        -0.217 7        42.031  
I06  38378246.154 7 150601432.68007       -49.463 7        44.531    38378239.394 6 319012883.10506      -104.739 6        38.281  
I07         0.000 7         0.00007        -0.103 7        43.125           0.000 6         0.00006        -0.217 6        38.438  
I09  36132011.637 8 141786973.08108      -119.403 8        51.406    36132006.016 7 300341104.88807      -252.995 7        45.000  
I10  39435703.405 7 154751033.57807       -67.532 7        42.812    39435696.629 5 327803014.33705      -142.837 5        35.781  
> 2024 01 02  0 22  0.0000000  0  9      -216.042264558522
I01         0.000 8         0.00008        -0.073 8        50.781           0.000 3         0.00003        -0.154 3        21.875  
I02  39519375.476 6 155079354.55206        -1.348 6        41.875    39519371.596 6 328498542.38506        -2.972 6        36.719  
I03  36495702.393 8 143213858.87808        11.093 8        50.156    36495697.150 7 303364273.97707        23.492 7        44.844  
I04         0.000 7         0.00007        -0.073 7        43.906           0.000 6         0.00006        -0.154 6        37.031  
I05         0.000 8         0.00008        -0.073 8        48.438           0.000 7         0.00007        -0.154 7        42.031  
I06  38377868.140 7 150599951.30207       -49.427 7        44.531    38377861.993 6 319009745.17806      -104.744 6        38.281  
I07         0.000 7         0.00007        -0.073 7        43.125           0.000 6         0.00006        -0.154 6        38.438  
I09  36131099.505 8 141783393.67208      -119.296 8        51.250    36131093.796 7 300333522.76607      -252.862 7        45.000  
I10  39435188.094 7 154749012.28907       -67.521 7        42.812    39435181.940 5 327798732.77705      -142.784 5        35.938  
> 2024 01 02  0 22 30.0000000  0  9      -215.549012536022
I01         0.000 8         0.00008        -0.078 8        50.781           0.000 4         0.00004        -0.166 4        26.250  
I02  39519359.477 6 155079291.88206        -3.073 6        41.875    39519355.568 6 328498409.66006        -6.695 6        36.875  
I03  36495787.936 8 143214194.47508        11.185 8        50.156    36495782.557 7 303364984.87407        23.924 7        44.844  
I04         0.000 7         0.00007        -0.078 7        43.906           0.000 6         0.00006        -0.166 6        36.875  
I05         0.000 8         0.00008        -0.078 8        48.594           0.000 7         0.00007        -0.166 7        42.188  
I06  38377490.780 7 150598469.12507       -49.596 7        44.531    38377483.974 6 319006605.55406      -104.766 6        38.125  
I07         0.000 7         0.00007        -0.078 7        43.125           0.000 6         0.00006        -0.166 6        38.438  
I09  36130187.425 8 141779814.44208      -119.301 8        51.250    36130181.667 7 300325941.02907      -252.840 7        45.000  
I10  39434672.461 7 154746988.62707       -67.596 7        42.656    39434666.025 5 327794446.19105      -143.149 5        35.938  
> 2024 01 02  0 23  0.0000000  0  9      -215.824719483913
I01         0.000 8         0.00008        -0.061 8        50.781           0.000 3         0.00003        -0.129 3        21.406  
I02  39519329.092 7 155079171.85507        -4.958 7        42.031    39519324.894 6 328498155.42606       -10.521 6        36.719  
I03  36495874.441 8 143214534.57808        11.278 8        50.312    36495869.372 7 303365705.33007        24.088 7        44.531  
I04         0.000 7         0.00007        -0.061 7        44.062           0.000 6         0.00006        -0.129 6        36.719  
I05         0.000 8         0.00008        -0.061 8        48.594           0.000 7         0.00007        -0.129 7        42.031  
